关注房源人数,总价,平米价,精简装,面积,建造时间,室,厅,小区名称,所在大区域,所在小区域,建筑类型,建筑结构,梯户比例,梯,户,产权年限,户型结构,海景,地铁,公交,轻轨,购物,银行,饭店,学区,采光,休闲,经度,纬度
96,78.0,9584.7,精,81.38,2014.0,2.0,1.0,观山悦$,金州,金润$,板塔结合$,钢混,0.5,2.0,4.0,70.0,跃层,0,1,1,1,0,0,0,0,1,0,121.74099222934906,39.10777997613847
109,67.5,10233.5,简,65.96,2005.0,2.0,2.0,龙畔金泉四期$,甘井子,泉水龙畔金泉$,板楼$,钢混,0.5,1.0,2.0,70.0,复式,0,1,0,0,0,0,0,0,0,0,121.62763557896044,39.00132439975652
147,60.8,9743.6,精,62.4,2000.0,2.0,1.0,锦江园西北路$,沙河口,锦绣$,板楼$,砖混,0.3333333333333333,1.0,3.0,70.0,平层,0,0,1,0,1,1,0,0,1,1,104.08956175659785,30.661904490317255
129,132.8,15180.6,精,87.48,2012.0,2.0,1.0,润泽园$,甘井子,泉水美域盛景$,板楼$,钢混,0.2857142857142857,2.0,7.0,70.0,平层,0,1,1,1,1,0,0,0,0,1,121.80248030726933,39.05074422097938
219,88.0,11224.5,精,78.4,2000.0,2.0,1.0,马栏广场$,沙河口,马栏$,塔楼$,砖混,0.07142857142857142,1.0,14.0,70.0,平层,0,1,1,0,1,0,0,0,0,1,121.56196642607793,38.92675217952642
93,106.0,11831.7,精,89.59,2008.0,2.0,1.0,龙畔金泉五期K4区$,甘井子,泉水龙畔金泉$,板楼$,钢混,0.5,2.0,4.0,70.0,平层,0,0,1,0,1,0,0,0,1,1,121.62763557896044,39.00132439975652
172,68.5,13489.6,精,50.78,1995.0,2.0,1.0,南沙$,沙河口,南沙$,板楼$,钢混,0.3333333333333333,1.0,3.0,70.0,平层,0,0,0,0,1,1,1,0,1,0,113.5314355437236,22.807929296528254
80,89.0,13401.6,精,66.41,2000.0,2.0,1.0,西苑新区$,沙河口,马栏$,板楼$,钢混,0.3333333333333333,1.0,3.0,70.0,复式,0,1,1,0,1,0,0,0,0,1,0,0
19,32.0,5462.6,精,58.58,2014.0,1.0,1.0,世茂御龙海湾$,金州,金州其他$,塔楼$,钢混,0.16666666666666666,2.0,12.0,70.0,平层,1,0,0,0,0,0,1,0,1,1,121.64875099197283,39.18012336992442
36,44.3,7910.7,精,56.0,2009.0,2.0,1.0,新希望家园$,金州,城润$,板塔结合$,钢混,0.2222222222222222,2.0,9.0,70.0,平层,0,1,0,0,0,0,0,0,0,0,121.75030429243509,39.06032095790547
250,106.8,14173.9,精,75.35,2006.0,2.0,2.0,锦城园C区$,沙河口,锦华$,板楼$,钢混,0.5,1.0,2.0,70.0,平层,0,1,1,0,1,0,0,0,1,1,121.55444937143483,38.952351750646535
39,56.0,8582.4,精,65.25,2000.0,2.0,2.0,金湖里$,开发区,倚山里$,板楼$,钢混,0.5,1.0,2.0,50.0,平层,0,0,1,0,0,0,0,0,0,0,121.80202386746004,39.05247226871288
164,86.0,12647.1,精,68.0,2003.0,2.0,1.0,华东路（山东路商圈）$,甘井子,山东路$,板楼$,钢混,0.3333333333333333,1.0,3.0,70.0,平层,0,1,1,0,1,1,0,0,0,1,121.60240654384825,38.996596707469664
196,128.0,12733.8,简,100.52,2012.0,2.0,1.0,华润海中国二期$,开发区,华润海中国$,板楼$,钢混,0.6666666666666666,2.0,3.0,50.0,平层,0,0,1,0,1,1,0,0,0,1,121.75727920982158,39.04282909035126
35,96.0,11428.6,简,84.0,2008.0,2.0,1.0,今都小区$,甘井子,华东$,板塔结合$,钢混,0.3333333333333333,2.0,6.0,70.0,平层,0,0,0,0,0,0,0,0,0,0,121.61488673733228,38.98594333197553
53,115.0,14773.9,精,77.84,2010.0,2.0,1.0,远洋自然$,甘井子,华南$,板塔结合$,钢混,0.5,2.0,4.0,70.0,平层,0,1,0,0,0,0,0,0,1,1,121.60144438049448,39.01043700992075
61,55.0,11282.1,简,48.75,1990.0,2.0,1.0,星海公园$,沙河口,孙家沟$,板楼$,砖混,0.3333333333333333,1.0,3.0,70.0,平层,0,1,0,0,1,1,0,0,0,1,121.5741110395726,38.88415578390394
27,119.0,13632.7,精,87.29,2005.0,2.0,1.0,山海一家一期$,高新园区,华录$,塔楼$,钢混,0.25,2.0,8.0,70.0,平层,0,1,1,0,1,1,0,1,1,1,0,0
64,133.0,8717.9,精,152.56,1999.0,5.0,2.0,纪念东巷$,西岗,唐山街$,板楼$,框架,0.3333333333333333,1.0,3.0,70.0,跃层,0,0,1,0,0,0,0,0,0,0,0,0
108,115.0,15648.4,精,73.49,2007.0,2.0,1.0,隽佳欣苑$,甘井子,机场$,板楼$,钢混,0.25,1.0,4.0,70.0,平层,0,0,1,0,1,0,0,0,0,1,121.5644860580503,38.964645376017806
20,85.8,10931.3,精,78.49,2000.0,2.0,1.0,商城花园$,甘井子,山东路$,板楼$,钢混,0.5,1.0,2.0,70.0,平层,0,1,0,0,0,0,0,0,0,0,121.5924145003217,38.975623911966714
15,61.0,9849.8,简,61.93,2003.0,2.0,1.0,泡崖美林园$,甘井子,美林园$,板楼$,混合,0.3333333333333333,1.0,3.0,70.0,平层,0,1,1,0,1,1,0,0,0,1,121.52588921557629,38.97887829733051
113,78.2,14218.2,精,55.0,,2.0,1.0,黑石礁$,沙河口,黑石礁$,板楼$,钢混,0.16666666666666666,1.0,6.0,70.0,平层,0,1,0,0,0,0,0,0,0,0,122.70541021855497,39.22409722493003
310,69.8,10542.2,精,66.21,1998.0,2.0,1.0,桃山小区$,沙河口,南沙$,板楼$,钢混,0.3333333333333333,1.0,3.0,70.0,平层,0,0,1,0,1,0,0,0,0,1,121.57185447367391,38.90203187667108
53,88.0,10526.3,精,83.6,1997.0,2.0,2.0,西苑小区$,沙河口,马栏$,板楼$,砖混,0.2,1.0,5.0,70.0,平层,0,1,1,0,1,1,0,0,1,1,0,0
40,30.0,6503.4,精,46.13,2005.0,1.0,0.0,东城天下$,开发区,东城$,板楼$,钢混,0.25,3.0,12.0,50.0,平层,0,0,1,1,1,1,0,0,1,0,121.84724109218661,39.07191843110481
44,105.0,14114.8,精,74.39,1990.0,2.0,1.0,兴工街$,沙河口,西安路$,板楼$,钢混,0.2,1.0,5.0,70.0,平层,0,1,0,0,0,0,0,0,0,0,121.5929379519254,38.92461395510886
32,65.0,11640.4,简,55.84,1993.0,2.0,1.0,侯一小区$,沙河口,侯家沟$,板楼$,砖混,0.3333333333333333,1.0,3.0,70.0,平层,0,1,1,0,0,0,0,0,1,1,121.58538099455156,38.93671712630814
86,92.5,11463.6,简,80.69,2007.0,2.0,2.0,锦泉源D3区$,甘井子,泉水锦泉源$,板楼$,钢混,0.3333333333333333,2.0,6.0,70.0,平层,0,0,0,1,0,0,0,0,0,0,121.61768702509855,39.01348308242818
395,127.0,16188.7,精,78.45,2003.0,2.0,1.0,壹品星海公寓$,沙河口,星海广场$,板塔结合$,钢混,0.16666666666666666,3.0,18.0,70.0,暂无数据,0,1,1,0,1,1,0,0,1,0,121.5849286034052,38.88638015449039
196,195.0,19539.1,简,99.8,1998.0,3.0,1.0,79中永平$,沙河口,中山公园$,板楼$,砖混,0.5,1.0,2.0,70.0,平层,0,1,0,0,0,0,0,0,0,1,99.54749489993098,25.470206483299727
71,67.0,7770.8,简,86.22,1999.0,2.0,1.0,新船巷$,西岗,新起屯$,板楼$,砖混,0.3333333333333333,1.0,3.0,70.0,平层,0,0,1,0,1,1,1,0,1,0,121.64113312858709,38.89409752726363
98,115.0,8092.9,毛,142.1,2015.0,3.0,2.0,世茂御龙海湾$,金州,金州其他$,未知$,钢混,0.0,0.0,0.0,70.0,跃层,0,0,1,0,0,0,1,0,1,1,121.64875099197283,39.18012336992442
102,182.0,15997.2,精,113.77,2012.0,3.0,1.0,第8区$,高新园区,中海$,板楼$,钢混,0.5,2.0,4.0,70.0,平层,0,1,1,0,1,1,0,0,0,1,0,0
75,48.0,5974.6,精,80.34,2000.0,2.0,1.0,山河嘉园$,开发区,东城$,板楼$,钢混,0.5,2.0,4.0,50.0,平层,0,0,0,0,0,0,0,0,0,0,121.84978189721987,39.08495210269467
92,56.0,11006.3,精,50.88,2008.0,1.0,1.0,加州洋房$,甘井子,华南$,板楼$,钢混,0.1176470588235294,2.0,17.0,40.0,平层,0,1,1,0,0,1,0,0,1,1,121.58277557350466,38.99849177442112
63,115.0,11756.3,简,97.82,2000.0,2.0,2.0,北京街南$,西岗,北京公园$,塔楼$,钢混,0.07142857142857142,1.0,14.0,70.0,平层,0,1,1,0,0,0,0,0,0,0,121.61915622711606,38.921048674096255
20,135.0,12857.1,精,105.0,2016.0,3.0,2.0,金地檀境$,甘井子,前关$,板楼$,钢混,0.16666666666666666,1.0,6.0,70.0,平层,0,0,1,0,1,1,0,0,1,1,121.66088216052893,39.041183728376204
165,74.5,12396.0,简,60.1,2005.0,2.0,1.0,部居逸阁$,中山,武昌街$,板楼$,钢混,0.1,1.0,10.0,70.0,平层,0,0,1,0,1,0,0,0,0,1,121.65267943198499,38.91209651886313
93,49.8,9810.9,简,50.76,1998.0,2.0,1.0,绿波B区$,沙河口,春柳$,板楼$,砖混,0.3333333333333333,1.0,3.0,70.0,平层,0,0,0,0,0,0,0,0,0,0,121.57786692946918,38.938943001346765
62,43.0,8245.4,精,52.15,2008.0,1.0,1.0,加州洋房$,甘井子,华南$,板楼$,钢混,0.1176470588235294,2.0,17.0,40.0,平层,0,1,1,0,0,1,0,0,1,1,121.58277557350466,38.99849177442112
41,82.0,8630.7,精,95.01,1996.0,2.0,1.0,锦云南园$,沙河口,锦绣$,板楼$,砖混,0.25,1.0,4.0,70.0,平层,0,0,0,0,1,0,1,0,0,1,121.56156224878491,38.94430234858559
34,65.0,8318.4,精,78.14,1998.0,2.0,2.0,高民里$,开发区,高城山$,板楼$,钢混,0.5,1.0,2.0,50.0,平层,0,0,0,0,1,1,1,0,1,0,121.83380099368887,39.070170524629006
44,103.0,14607.9,精,70.51,2003.0,2.0,1.0,盛世闲庭$,甘井子,山东路$,板楼$,钢混,0.5,1.0,2.0,70.0,平层,0,1,1,0,1,0,0,0,0,0,121.5793230916839,38.9794939884365
62,108.0,15109.1,简,71.48,2006.0,2.0,1.0,阳光月秀$,沙河口,阳光月秀$,板楼$,钢混,0.5,2.0,4.0,70.0,平层,0,0,1,0,1,1,0,0,1,1,121.5760348228053,38.934825492099485
32,66.9,12071.5,精,55.42,1993.0,2.0,1.0,北昌平小区$,沙河口,西安路$,板楼$,砖混,0.3333333333333333,1.0,3.0,70.0,平层,0,1,0,0,0,0,0,0,0,0,121.5911292515099,38.920481531719446
169,79.0,15233.3,精,51.86,2013.0,1.0,1.0,亿达天琴山$,西岗,石道街$,板楼$,钢混,0.2222222222222222,2.0,9.0,40.0,平层,0,0,0,0,0,0,0,1,0,0,121.6189161217312,38.912480603138185
18,122.0,14074.8,精,86.68,2012.0,3.0,2.0,万科魅力之城$,甘井子,魅力之城$,板楼$,钢混,0.5,2.0,4.0,70.0,平层,0,0,0,0,0,0,0,0,0,0,121.52256275973045,38.996118699254794
194,48.0,7986.7,毛,60.1,2012.0,1.0,0.0,MINI印象$,高新园区,高新园区$,塔楼$,钢混,0.125,6.0,48.0,40.0,平层,0,1,0,0,0,0,0,0,0,0,121.53094001196717,38.86464631837938
103,49.8,11759.1,精,42.35,1993.0,2.0,1.0,春风巷$,沙河口,春柳$,板楼$,砖混,0.3333333333333333,1.0,3.0,70.0,平层,0,1,0,0,0,0,0,0,0,0,121.58405899695966,38.946739999068726
217,40.0,10473.9,精,38.19,1994.0,1.0,1.0,香炉礁$,西岗,香炉礁$,塔楼$,砖混,0.3333333333333333,1.0,3.0,70.0,平层,0,1,1,1,1,1,1,0,1,0,121.62212843708234,38.950923584890575
26,134.8,14714.6,精,91.61,2012.0,3.0,2.0,万科魅力之城$,甘井子,魅力之城$,板楼$,钢混,0.5,1.0,2.0,70.0,平层,0,1,1,0,0,0,0,0,0,0,121.52256275973045,38.996118699254794
15,117.6,15000.0,简,78.4,2004.0,3.0,1.0,千山心城$,甘井子,山东路$,板楼$,钢混,0.5,1.0,2.0,70.0,平层,0,1,1,0,1,0,0,0,0,1,121.57869821060844,38.98266707097553
17,79.5,12104.1,精,65.68,2003.0,2.0,1.0,千山心城$,甘井子,山东路$,板楼$,钢混,0.5,1.0,2.0,70.0,跃层,0,1,0,0,1,1,0,0,1,0,121.57869821060844,38.98266707097553
36,178.0,22855.7,简,77.88,2015.0,2.0,1.0,东方圣克拉三期$,高新园区,庙岭$,板楼$,钢混,0.3333333333333333,1.0,3.0,70.0,平层,0,0,0,0,0,0,0,0,0,0,121.53339332204376,38.90317970824006
134,110.0,12267.2,精,89.67,2010.0,2.0,1.0,依云溪谷$,甘井子,溪之谷$,板楼$,钢混,0.5,1.0,2.0,70.0,平层,0,0,0,0,1,0,0,1,0,1,121.48418043800203,38.92113328132571
112,130.0,16181.2,精,80.34,2005.0,2.0,1.0,新新园二期$,高新园区,庙岭$,板楼$,钢混,0.5,1.0,2.0,70.0,平层,0,0,1,0,1,1,0,1,1,1,121.53293285692749,38.89360478728939
58,139.0,13113.2,精,106.0,2012.0,3.0,2.0,万科溪之谷$,甘井子,溪之谷$,板楼$,钢混,0.5,2.0,4.0,70.0,跃层,0,0,0,0,0,0,0,0,0,0,121.48045379064472,38.91483322778244
20,153.0,18115.1,精,84.46,2010.0,2.0,2.0,星海大观$,沙河口,星海广场$,板楼$,钢混,0.5,5.0,10.0,70.0,平层,0,1,0,0,0,0,0,0,0,1,121.59892136640185,38.893314197227234
187,108.0,15428.6,精,70.0,1993.0,2.0,2.0,星海公园$,沙河口,孙家沟$,板楼$,砖混,0.5,1.0,2.0,70.0,平层,0,1,0,1,0,0,0,0,0,0,121.5741110395726,38.88415578390394
25,115.0,14232.7,精,80.8,2016.0,2.0,1.0,华润海中国六期$,开发区,华润海中国$,板楼$,钢混,0.6666666666666666,2.0,3.0,50.0,平层,1,0,1,0,1,0,1,0,1,1,121.76805600136368,39.04110807394385
15,75.0,10725.0,简,69.93,1995.0,2.0,1.0,锦江园$,沙河口,锦绣$,板楼$,砖混,0.3333333333333333,1.0,3.0,70.0,平层,0,0,0,0,1,1,0,0,0,0,121.56646971873508,38.950666299910104
40,113.5,10898.8,简,104.14,1998.0,3.0,2.0,绿波B区$,沙河口,春柳$,板楼$,砖混,0.5,1.0,2.0,70.0,平层,0,1,0,0,0,0,0,0,0,0,121.57786692946918,38.938943001346765
144,145.0,18415.0,精,78.74,2009.0,2.0,2.0,哈佛映像$,高新园区,凌水$,板楼$,钢混,0.5,1.0,2.0,70.0,平层,0,0,1,0,1,1,0,0,0,1,121.5150872562087,38.882268777632284
192,66.0,14282.6,精,46.21,2006.0,1.0,0.0,city one$,高新园区,one$所在区域:高新园区 软件园$,板楼$,钢混,0.06,3.0,50.0,70.0,平层,0,1,0,0,1,1,0,0,0,1,121.62163148459285,38.9189536667856
20,132.8,14791.7,精,89.78,2009.0,2.0,2.0,泉水家年华$,甘井子,泉水美域盛景$,板楼$,钢混,0.5,1.0,2.0,70.0,平层,0,0,1,1,1,1,0,0,1,1,121.62977789297456,39.01625356593743
49,55.0,8785.9,简,62.6,2008.0,2.0,1.0,城润万家$,开发区,城润$,板楼$,钢混,0.6666666666666666,2.0,3.0,50.0,平层,0,0,0,1,1,0,0,0,0,0,121.75486958883346,39.060070069002506
45,160.0,18643.7,精,85.82,2014.0,2.0,1.0,亿达普罗旺斯二期$,高新园区,普罗旺斯$,板楼$,钢混,0.6666666666666666,2.0,3.0,70.0,平层,0,1,0,0,0,0,0,0,0,0,121.49345999680148,38.858402104460424
30,62.8,17517.4,精,35.85,2004.0,2.0,1.0,东特新天地$,甘井子,周水子$,板楼$,钢混,0.08333333333333333,2.0,24.0,70.0,复式,0,0,0,0,0,0,0,0,0,0,121.56984344341686,38.952802573071764
38,107.0,15285.7,精,70.0,2005.0,2.0,1.0,山海一家一期$,高新园区,华录$,塔楼$,钢混,0.25,2.0,8.0,70.0,平层,0,1,1,1,0,0,0,0,1,0,0,0
26,129.0,10473.3,精,123.17,2009.0,3.0,1.0,湖畔嘉园$,金州,碧海$,板楼$,钢混,0.5,1.0,2.0,70.0,平层,0,1,0,0,0,0,0,0,0,0,121.73088555305637,39.10839695418269
68,125.0,22727.3,简,55.0,1993.0,2.0,1.0,39中明阳街$,中山,三八南$,板楼$,钢混,0.3333333333333333,1.0,3.0,70.0,平层,0,1,1,0,0,0,0,0,0,1,121.66476937640293,38.920629698466094
75,70.0,11496.1,精,60.89,2009.0,2.0,1.0,鑫境界$,甘井子,机场$,板楼$,钢混,0.1,2.0,20.0,40.0,平层,0,1,0,0,0,0,0,0,0,0,121.55214430781825,38.960410110943705
25,181.0,20122.3,精,89.95,2013.0,2.0,2.0,缇香漫城$,甘井子,机场乐购$,板楼$,钢混,0.5,1.0,2.0,70.0,平层,0,0,1,0,1,1,0,0,0,1,121.5293043413624,38.96466139870839
50,162.0,19290.3,精,83.98,2009.0,2.0,2.0,中海英伦观邸$,沙河口,绿波$,板楼$,钢混,0.5,2.0,4.0,70.0,平层,0,0,1,0,0,0,0,0,1,1,121.56527978373113,38.94229329435486
49,99.8,15540.3,精,64.22,2012.0,1.0,1.0,美辰香醒$,甘井子,华东$,板楼$,钢混,0.3333333333333333,2.0,6.0,70.0,平层,0,0,1,0,1,1,0,0,1,0,121.60381564473562,38.99047397562602
67,195.0,18932.0,简,103.0,2007.0,2.0,1.0,运达嘉洲阳光$,中山,二七$,板楼$,框架,0.5,2.0,4.0,70.0,平层,0,1,1,0,0,0,0,0,1,1,121.67524697022714,38.92904100323863
45,77.5,11397.1,精,68.0,2012.0,2.0,1.0,红星海三期境界$,开发区,红星海$,板楼$,钢混,0.375,3.0,8.0,50.0,平层,0,0,1,0,0,1,0,0,0,0,121.80196999877353,39.0295960874216
62,380.0,29468.8,简,128.95,2002.0,3.0,2.0,南山苑$,中山,三八南$,板楼$,钢混,0.5,1.0,2.0,70.0,平层,0,0,1,0,1,1,0,0,1,1,121.66694396473741,38.918367298843066
45,91.0,11610.1,精,78.38,2007.0,2.0,1.0,泊林和山$,甘井子,叠翠$,塔楼$,钢混,0.3333333333333333,1.0,3.0,70.0,平层,0,1,0,0,1,1,0,0,1,0,121.54218711764717,38.92402111742112
23,110.0,12359.6,简,89.0,2003.0,2.0,1.0,泡崖美林园$,甘井子,美林园$,板楼$,钢混,0.5,1.0,2.0,70.0,平层,0,1,1,0,1,1,0,0,1,1,121.52588921557629,38.97887829733051
36,168.0,8764.6,精,191.68,2005.0,4.0,2.0,东城天下$,开发区,东城$,板楼$,钢混,0.3333333333333333,1.0,3.0,50.0,平层,0,0,0,0,0,0,0,0,0,0,121.84724109218661,39.07191843110481
81,69.8,11816.5,精,59.07,2012.0,2.0,1.0,君悦晟景$,甘井子,叠翠$,板楼$,钢混,0.125,1.0,8.0,70.0,平层,0,1,1,0,1,1,0,0,1,0,121.53731203789877,38.91364837532266
28,156.0,13805.3,精,113.0,2012.0,3.0,1.0,华润海中国二期$,开发区,华润海中国$,板楼$,钢混,0.5,2.0,4.0,50.0,平层,0,0,1,0,1,1,0,0,0,1,121.75727920982158,39.04282909035126
24,263.0,21988.1,精,119.61,2005.0,3.0,2.0,弘基三期$,高新园区,学府$,板楼$,钢混,1.0,2.0,2.0,70.0,平层,1,1,0,0,0,0,0,0,1,1,0,0
16,209.0,22000.0,精,95.0,2009.0,2.0,1.0,金寓花园四期$,甘井子,机场$,板楼$,钢,0.5,1.0,2.0,70.0,平层,0,1,1,0,1,0,0,0,0,1,121.55429881543137,38.95928719919636
37,81.0,9152.5,简,88.5,2010.0,2.0,2.0,金润小区B区$,金州,金润$,板楼$,钢混,0.5,1.0,2.0,70.0,平层,0,1,1,0,1,0,1,0,0,1,121.74665495055505,39.103153105120306
28,289.0,14725.4,精,196.26,2000.0,3.0,2.0,丰源海景$,中山,景山$,板楼$,钢混,0.5,1.0,2.0,70.0,跃层,0,0,1,0,1,0,0,0,0,1,0,0
47,126.8,16196.2,精,78.29,2007.0,2.0,1.0,西山阳光水岸$,甘井子,万科假日$,板楼$,钢混,0.3333333333333333,1.0,3.0,70.0,平层,0,1,1,0,1,0,0,0,1,0,121.52241194411668,38.93851028637249
23,115.0,13358.1,简,86.09,2009.0,2.0,2.0,万国宫馆二期$,开发区,红梅翠竹$,板楼$,钢混,0.5,2.0,4.0,50.0,平层,0,0,1,1,1,1,1,0,1,0,121.75888888346489,39.046487948746986
48,80.0,11101.9,简,72.06,1999.0,2.0,1.0,锦霞北园$,沙河口,锦华$,板楼$,钢混,0.3333333333333333,1.0,3.0,70.0,平层,0,1,1,0,1,0,0,0,1,1,121.5525485875181,38.95006883337896
44,70.0,16982.0,精,41.22,2012.0,1.0,1.0,益嘉广场$,沙河口,马栏$,板楼$,钢混,0.16666666666666666,2.0,12.0,70.0,平层,0,1,1,0,1,1,0,0,0,1,121.56100407946984,38.92546552027435
16,90.0,10244.7,毛,87.85,2012.0,2.0,2.0,福佳新城$,甘井子,前关$,板楼$,钢混,0.5,2.0,4.0,70.0,平层,0,0,1,1,1,1,0,0,0,1,121.67365804564446,39.03139348503094
67,252.0,22467.9,简,112.16,1998.0,3.0,2.0,39中南山花园$,中山,三八南$,板楼$,钢混,0.5,1.0,2.0,70.0,平层,0,0,0,0,0,0,0,0,0,0,0,0
45,99.5,12489.0,精,79.67,1999.0,3.0,2.0,香炉礁$,西岗,香炉礁$,板楼$,砖混,0.3333333333333333,1.0,3.0,70.0,平层,0,1,1,0,1,0,1,0,0,0,121.62212843708234,38.950923584890575
93,95.0,13281.1,简,71.53,2004.0,2.0,2.0,华兴山庄$,高新园区,凌水$,板楼$,钢混,0.5,1.0,2.0,70.0,平层,0,0,1,0,1,1,0,0,0,1,121.51276175075195,38.88566533950871
29,118.0,13720.9,精,86.0,2013.0,2.0,1.0,华润海中国三期$,开发区,华润海中国$,板楼$,钢混,0.5,2.0,4.0,50.0,平层,0,0,1,0,1,1,0,0,1,1,121.76150942389182,39.04231605807281
108,122.0,11420.0,精,106.83,2000.0,3.0,1.0,千山路$,甘井子,山东路$,板楼$,砖混,0.5,1.0,2.0,70.0,平层,0,1,0,0,1,1,0,0,1,0,121.58814421643585,38.98528697769128
103,193.0,20127.2,简,95.89,2010.0,2.0,1.0,北京公园$,西岗,北京公园$,板楼$,钢混,0.5,1.0,2.0,40.0,平层,0,1,1,0,1,1,0,0,1,1,121.61976145596186,38.926665815630805
177,139.0,17935.5,毛,77.5,2016.0,2.0,2.0,中铁诺德滨海花园$,高新园区,七贤岭$,板楼$,钢混,0.6666666666666666,2.0,3.0,70.0,平层,0,1,1,0,1,1,0,0,0,1,121.5131418229149,38.86371427439674
120,38.0,8064.5,简,47.12,2005.0,1.0,1.0,部居逸阁$,中山,武昌街$,板楼$,钢混,0.1,1.0,10.0,70.0,平层,0,0,1,0,1,0,0,0,0,1,121.65267943198499,38.91209651886313
46,266.0,14348.9,毛,185.38,2015.0,3.0,2.0,中海海港城$,中山,民主广场$,板楼$,钢混,1.0,3.0,3.0,0.0,平层,1,1,0,0,0,0,0,0,0,0,121.66316549683015,38.935152364310724
21,150.0,15921.9,精,94.21,2016.0,3.0,2.0,中航华府$,甘井子,体育新城$,板楼$,钢混,0.5,2.0,4.0,70.0,平层,0,0,1,0,1,0,0,0,0,0,121.55968360809901,39.014867745056534
16,81.9,7726.4,精,106.0,2003.0,2.0,2.0,青松南里$,开发区,红梅翠竹$,板楼$,钢混,0.25,2.0,8.0,50.0,平层,0,0,0,0,0,0,0,0,1,0,121.76474208855765,39.04758773975601
44,113.0,12696.6,简,89.0,2009.0,2.0,1.0,万国宫馆一期$,开发区,红梅翠竹$,板楼$,钢混,0.4,2.0,5.0,50.0,平层,0,0,1,0,1,0,0,0,1,0,121.75888535042932,39.04527736616778
28,47.5,9058.0,精,52.44,2000.0,2.0,1.0,荷塘悦色$,旅顺口,龙王塘$,板楼$,钢混,0.14285714285714285,1.0,7.0,70.0,平层,0,1,1,1,1,0,0,0,1,1,113.18045222006695,27.862155809140553
21,133.0,12923.9,精,102.91,1997.0,2.0,2.0,阳光花园一期$,中山,中南$,板楼$,砖混,0.5,1.0,2.0,70.0,平层,0,0,1,0,1,1,0,0,1,0,121.71411832498364,39.73798907028787
15,360.0,26897.8,精,133.84,2013.0,3.0,2.0,中海紫御观邸一期$,高新园区,中海$,板楼$,钢混,0.5,1.0,2.0,70.0,平层,0,1,0,0,0,0,0,0,1,0,121.52783500459905,38.87082611585169
13,73.0,8784.6,简,83.1,2006.0,2.0,2.0,职高小区$,金州,光明$,板楼$,钢混,0.5,1.0,2.0,70.0,平层,0,0,0,0,0,0,0,0,0,0,121.71639192904297,39.10952899448941
149,178.0,19487.6,简,91.34,2015.0,3.0,2.0,中铁诺德滨海花园$,高新园区,七贤岭$,板楼$,钢混,0.5,2.0,4.0,70.0,平层,0,1,1,0,1,1,0,0,0,1,121.51382808610418,38.86160076179367
35,149.8,14549.3,精,102.96,2013.0,3.0,2.0,枫丹丽城$,甘井子,泉水美域盛景$,板楼$,钢混,0.5,2.0,4.0,70.0,平层,0,0,0,1,1,0,0,0,0,1,121.62045416539148,39.01004692564209
68,86.6,13081.6,精,66.2,2008.0,2.0,1.0,水映西山$,甘井子,万科假日$,塔楼$,钢混,0.3333333333333333,1.0,3.0,70.0,平层,0,0,1,0,1,0,0,0,1,1,102.67155712350362,25.043198760946844
227,97.0,13566.4,精,71.5,2005.0,2.0,1.0,锦泉源D2区$,甘井子,泉水锦泉源$,板楼$,钢混,0.2,2.0,10.0,70.0,平层,0,1,1,1,1,1,0,0,1,1,121.61768702509855,39.01348308242818
98,29.5,4126.5,毛,71.49,,2.0,1.0,翠岫联芳$,旅顺口,旅顺口$,板楼$,钢混,16.0,16.0,1.0,70.0,平层,0,0,0,0,1,0,0,0,1,0,121.31629783161593,38.850180286276256
13,133.0,12116.2,简,109.77,2000.0,3.0,2.0,红旗东路$,甘井子,马栏$,板楼$,砖混,0.5,1.0,2.0,70.0,平层,0,1,0,0,0,0,0,0,0,0,121.55447998029678,38.92936160603863
54,93.0,12043.5,精,77.22,2014.0,2.0,2.0,万科樱花园$,旅顺口,龙王塘$,板楼$,钢混,0.5,2.0,4.0,70.0,平层,0,1,1,0,0,0,0,0,1,1,121.40923887503531,38.84886550105036
150,210.0,25149.7,精,83.5,2011.0,2.0,1.0,东方圣克拉二期$,高新园区,庙岭$,板楼$,钢混,0.5,2.0,4.0,70.0,平层,0,0,1,0,0,0,0,0,1,1,121.53509518249345,38.902671091506555
20,116.0,11800.6,毛,98.3,1997.0,2.0,2.0,卧龙双厦$,西岗,青云街$,板楼$,钢混,0.25,2.0,8.0,70.0,平层,0,0,1,0,1,1,0,0,1,0,121.65817599002757,38.89428406963415
46,85.0,9066.7,毛,93.75,2009.0,2.0,2.0,泉水N1区$,甘井子,泉水龙畔金泉$,板楼$,钢混,0.5,3.0,6.0,70.0,平层,0,1,1,1,1,0,0,0,0,0,121.64195088573689,39.02260164012546
57,81.5,13581.1,精,60.01,2000.0,2.0,1.0,前程街$,甘井子,马栏$,板楼$,砖混,0.3333333333333333,1.0,3.0,70.0,平层,0,1,1,0,1,1,1,0,0,1,121.5546274793666,38.93222264581343
36,273.0,19008.5,简,143.62,2003.0,3.0,2.0,清华园(中山)$,中山,二七$,板楼$,框架,0.5,1.0,2.0,70.0,错层,0,1,1,0,1,1,0,0,1,0,121.67053859532035,38.930403700718124
104,131.0,15913.5,精,82.32,2011.0,2.0,2.0,中冶蓝城D区$,甘井子,生态新城$,板楼$,钢混,0.5,1.0,2.0,70.0,平层,0,0,1,0,1,1,1,0,0,0,121.49580403519921,38.98170313111056
69,48.0,6240.2,简,76.92,2001.0,2.0,1.0,芙蓉花园(开发区)$,开发区,东山$,板楼$,钢混,0.06666666666666668,1.0,15.0,50.0,平层,0,0,1,0,1,1,0,0,0,1,121.71284674209357,39.11170163300359
18,78.0,7098.0,毛,109.89,2015.0,2.0,2.0,世茂御龙海湾$,金州,金州其他$,未知$,钢混,0.0,0.0,0.0,70.0,跃层,0,0,1,0,1,0,1,0,1,1,121.64875099197283,39.18012336992442
10,115.0,13719.9,精,83.82,2007.0,2.0,1.0,祥和花园$,甘井子,南关岭$,板楼$,钢混,0.3333333333333333,1.0,3.0,70.0,平层,0,1,1,0,1,0,0,0,1,0,121.62114644093951,39.031298009495615
53,83.0,16236.3,简,51.12,2004.0,1.0,1.0,亲亲家园$,甘井子,西山水库$,板楼$,钢混,0.3333333333333333,1.0,3.0,70.0,平层,0,1,1,0,0,0,0,0,1,0,121.54987077203016,38.92858041390463
75,62.8,9654.1,简,65.05,1993.0,2.0,1.0,侯二小区$,沙河口,侯家沟$,板楼$,钢混,0.5,1.0,2.0,70.0,平层,0,1,1,0,0,0,0,0,1,1,121.59007102695813,38.933812737033655
4,80.0,10579.2,精,75.62,1995.0,2.0,1.0,宏孚小区$,甘井子,华东$,板楼$,砖混,0.5,1.0,2.0,70.0,平层,0,0,0,0,0,0,0,0,0,0,121.60214059062066,38.987950352899944
131,61.2,13021.3,精,47.0,2012.0,1.0,0.0,泛华领城$,中山,三八北$,板楼$,钢混,0.25,6.0,24.0,70.0,平层,0,1,1,0,1,0,0,0,0,1,121.66197298638428,38.92662483918485
63,93.0,11034.6,精,84.28,2009.0,2.0,1.0,泉水N3区$,甘井子,泉水龙畔金泉$,板楼$,砖混,0.5,2.0,4.0,70.0,平层,0,1,1,1,1,1,0,0,0,0,121.64740800187946,39.022107461013675
76,62.5,12131.2,精,51.52,1990.0,2.0,1.0,由家村$,高新园区,软件园$,板楼$,钢混,0.2,1.0,5.0,70.0,平层,0,1,0,0,0,0,0,0,0,0,121.54842093298792,38.893939506288305
83,85.0,18478.3,精,46.0,1995.0,2.0,1.0,39中民建街$,中山,三八南$,板楼$,钢混,0.25,1.0,4.0,70.0,平层,0,1,0,0,0,0,0,0,0,0,121.66476937640293,38.920629698466094
208,107.0,12679.2,精,84.39,2009.0,1.0,1.0,港湾壹号$,中山,三八北$,塔楼$,钢混,0.2,3.0,15.0,70.0,平层,0,1,1,0,0,0,0,0,1,1,121.66433931892816,38.93023682513033
71,87.0,13809.5,精,63.0,2005.0,2.0,1.0,锦泉源D2区$,甘井子,泉水锦泉源$,板楼$,钢混,0.5,2.0,4.0,70.0,平层,0,1,0,1,1,1,0,0,1,1,121.62195792881518,39.015177234234486
62,89.5,9913.6,简,90.28,2010.0,2.0,1.0,热岛黄金海岸$,开发区,华润海中国$,板楼$,钢混,0.5,2.0,4.0,0.0,平层,1,0,1,0,1,1,1,1,0,0,121.76889117845394,39.04002069842227
69,70.9,7803.2,精,90.86,2009.0,2.0,1.0,新希望家园$,金州,城润$,板楼$,钢混,0.6666666666666666,2.0,3.0,70.0,跃层,0,0,1,1,1,1,0,0,0,0,121.75030429243509,39.06032095790547
50,79.0,15064.8,精,52.44,2011.0,2.0,1.0,润德广场$,西岗,北京公园$,塔楼$,钢混,0.25,6.0,24.0,70.0,平层,0,1,1,0,0,0,0,0,1,1,121.62313670237317,38.92225115261126
44,265.0,18749.1,简,141.34,2003.0,3.0,2.0,中华名城$,西岗,八一路$,板楼$,框架,0.5,1.0,2.0,70.0,平层,0,0,1,0,1,1,0,0,0,1,121.64760098844539,38.88836605864217
224,125.0,14450.9,简,86.5,2006.0,2.0,1.0,阳光月秀$,沙河口,阳光月秀$,板楼$,钢混,0.5,2.0,4.0,70.0,平层,0,0,1,0,1,1,1,0,1,1,121.5760348228053,38.934825492099485
90,248.0,21316.8,毛,116.34,2018.0,3.0,2.0,三鼎春天$,甘井子,第五郡$,板楼$,钢混,0.5,1.0,2.0,70.0,平层,0,0,0,0,1,1,0,0,1,1,121.52773970157088,38.95157664728067
51,0.0,0.0,简,52.78,1995.0,2.0,1.0,马栏小学北$,沙河口,马栏$,板楼$,砖混,0.3333333333333333,1.0,3.0,70.0,平层,0,1,1,0,1,0,0,0,0,0,121.56320121617092,38.93162774504978
23,97.0,11878.5,毛,81.66,1996.0,2.0,2.0,桃花源小区$,西岗,八一路$,板楼$,砖混,0.3333333333333333,1.0,3.0,70.0,平层,0,0,1,0,1,1,0,0,1,1,121.64733675547286,38.894641227069435
53,51.5,8567.6,简,60.11,1997.0,2.0,1.0,五二三厂$,甘井子,甘井子$,板楼$,砖混,0.3333333333333333,1.0,3.0,70.0,平层,0,0,0,0,0,0,0,0,0,0,121.66843737249518,39.002363571407145
12,56.8,7657.1,精,74.18,2001.0,2.0,1.0,怡海花园一期$,开发区,高城山$,板楼$,混合,0.5,1.0,2.0,50.0,平层,0,0,1,1,0,0,0,1,1,0,121.8303779223905,39.0711299828303
85,129.0,9121.1,简,141.43,2005.0,3.0,2.0,众益阳光海岸$,开发区,海富$,板楼$,钢混,0.6666666666666666,2.0,3.0,50.0,平层,0,0,1,0,1,0,0,0,0,1,121.80492450852803,39.03478010125289
12,84.0,9256.2,简,90.75,2015.0,3.0,2.0,乾豪新界$,开发区,金湾新城$,板楼$,钢混,0.3333333333333333,1.0,3.0,70.0,暂无数据,0,0,0,0,0,0,0,0,0,0,121.86302650557424,39.06124888606264
171,262.0,16313.8,毛,160.6,2014.0,3.0,2.0,亿达普罗旺斯二期$,高新园区,普罗旺斯$,板楼$,钢混,2.5,5.0,2.0,70.0,平层,0,1,1,0,0,0,0,0,1,1,121.49345999680148,38.858402104460424
95,111.5,13696.1,精,81.41,2016.0,2.0,2.0,中海凤凰熙岸$,甘井子,甘井子其它$,板楼$,钢混,0.5,1.0,2.0,70.0,平层,0,0,0,0,1,0,0,0,0,0,121.44267622166021,38.99882699481407
111,189.0,20696.5,精,91.32,2011.0,2.0,1.0,城市印象$,甘井子,第五郡$,板楼$,钢混,0.5,1.0,2.0,70.0,平层,0,1,1,0,1,1,0,0,0,1,121.55140628785873,38.9629062909715
40,64.0,11985.0,简,53.4,2006.0,2.0,1.0,新星绿城三期$,甘井子,机场乐购$,板楼$,钢混,0.3333333333333333,1.0,3.0,70.0,平层,0,0,0,0,0,0,0,0,1,0,121.51673677778615,38.96564202280645
33,203.0,23336.0,精,86.99,2016.0,2.0,2.0,三鼎春天B区$,甘井子,第五郡$,板楼$,钢混,1.0,2.0,2.0,70.0,平层,0,0,0,0,0,0,0,0,0,0,121.52773970157088,38.95157664728067
35,176.0,23614.7,精,74.53,1998.0,2.0,1.0,双语学校$,高新园区,软件园$,板楼$,砖混,0.5,1.0,2.0,70.0,平层,0,0,0,0,0,0,0,0,1,0,0,0
14,238.0,26174.0,精,90.93,2012.0,2.0,2.0,第五郡三号地$,甘井子,第五郡$,板楼$,钢混,0.3333333333333333,1.0,3.0,70.0,平层,0,1,0,0,1,1,1,0,1,1,121.53679596138329,38.95708310315421
14,49.3,11101.1,简,44.41,1995.0,2.0,0.0,南石巷$,西岗,石道街$,板楼$,钢混,0.16666666666666666,1.0,6.0,70.0,平层,0,0,0,0,0,0,0,0,1,1,121.63000508162447,38.89600387782548
35,44.5,12581.3,简,35.37,1990.0,1.0,1.0,中南路$,中山,中南$,板楼$,砖混,0.25,1.0,4.0,70.0,平层,0,0,1,0,1,1,0,0,1,0,121.67700561077149,38.91149759691359
70,73.0,14971.3,简,48.76,2003.0,1.0,1.0,福佳新天地$,沙河口,西安路$,塔楼$,钢混,0.5,4.0,8.0,70.0,跃层,0,1,1,0,0,0,0,0,0,0,121.5948084863024,38.92282361808862
39,159.8,16717.2,精,95.59,2013.0,3.0,2.0,沿海鉴筑$,甘井子,华南$,板楼$,钢混,0.5,2.0,4.0,70.0,平层,0,1,0,0,0,0,0,0,0,0,121.59928133718243,39.011543718061695
15,82.0,15448.4,精,53.08,2005.0,1.0,1.0,良玖国际$,西岗,英华街$,塔楼$,钢混,0.15,3.0,20.0,70.0,平层,0,1,0,0,1,0,0,0,0,0,121.63118590601394,38.92486759844375
50,59.8,18635.1,精,32.09,2012.0,1.0,0.0,大有文园$,高新园区,凌水$,板楼$,钢混,0.3333333333333333,1.0,3.0,70.0,平层,0,0,0,0,1,1,0,1,0,1,121.52000820433474,38.89116871167808
85,137.0,18026.3,精,76.0,2012.0,3.0,1.0,卡纳意乡$,中山,景山$,板楼$,框架,0.5,2.0,4.0,70.0,平层,0,0,0,0,0,0,0,0,0,0,121.66842827984681,38.90162426126012
38,83.5,12632.4,简,66.1,2000.0,2.0,1.0,彩霞园$,甘井子,前程街$,板楼$,砖混,0.3333333333333333,1.0,3.0,70.0,平层,0,1,0,0,0,0,0,0,1,0,121.55687338058229,38.93528256107525
51,79.8,14091.5,简,56.63,2004.0,2.0,1.0,兴达依山居$,甘井子,西山水库$,板楼$,钢混,0.3333333333333333,1.0,3.0,70.0,平层,0,1,1,0,1,0,0,0,1,0,121.54183007624087,38.939334257288884
70,88.9,16505.8,简,53.86,2013.0,2.0,1.0,枫丹丽城$,甘井子,泉水美域盛景$,板楼$,钢混,0.25,1.0,4.0,70.0,平层,0,0,1,0,1,0,0,0,1,1,121.62052248511873,39.01016428270067
47,99.0,12171.1,简,81.34,2012.0,2.0,1.0,大连海湾城一期$,开发区,华润海中国$,板楼$,钢混,0.5,2.0,4.0,70.0,平层,0,0,1,0,1,1,1,0,1,1,121.75396598960911,39.04239207976784
25,109.0,14469.7,简,75.33,2010.0,2.0,2.0,艾维尼小城$,甘井子,生态新城$,板楼$,钢混,0.25,1.0,4.0,70.0,平层,0,0,0,0,1,1,1,0,1,1,121.49830930416482,38.97876267755482
31,125.0,14808.7,简,84.41,2002.0,2.0,1.0,金色阳光家园$,甘井子,泉水锦泉源$,板楼$,钢混,0.5,1.0,2.0,70.0,平层,0,1,1,1,0,1,1,0,1,0,121.61169367626147,39.01026492289031
14,129.8,24439.8,精,53.11,2014.0,1.0,1.0,第九频道$,西岗,华府$,塔楼$,钢混,0.21739130434782608,5.0,23.0,70.0,平层,0,1,1,0,1,0,0,0,0,1,121.61040061847987,38.92145559367231
34,125.0,12914.6,精,96.79,2012.0,2.0,1.0,红星海四期城市别馆二号$,开发区,红星海$,板楼$,钢混,0.42857142857142855,3.0,7.0,50.0,平层,0,0,0,0,1,0,0,0,0,1,121.80523596811615,39.027694102963004
7,112.0,12669.7,精,88.4,2011.0,2.0,2.0,华邦俪城$,金州,桃园$,板楼$,钢混,0.5,2.0,4.0,0.0,平层,0,1,1,1,1,0,0,0,0,0,121.64526159069392,38.92601647471342
11,85.0,17241.4,简,49.3,2002.0,1.0,1.0,谷和温馨苑$,甘井子,促进路$,板楼$,钢混,0.25,1.0,4.0,70.0,平层,0,0,1,0,0,0,0,0,1,0,121.5795135773673,38.95572675286771
126,166.0,9421.6,简,176.19,1996.0,3.0,2.0,桃花源小区$,西岗,八一路$,板楼$,砖混,0.5,1.0,2.0,70.0,跃层,0,0,1,0,1,1,1,0,1,0,121.64733675547286,38.894641227069435
27,89.8,21753.9,简,41.28,1995.0,1.0,1.0,39中顺阳街$,中山,三八南$,板楼$,钢混,0.3333333333333333,1.0,3.0,70.0,平层,0,1,1,0,1,0,0,0,1,1,121.66476937640293,38.920629698466094
41,218.0,27250.0,精,80.0,2009.0,2.0,1.0,唯美品格$,甘井子,大纺$,塔楼$,钢,0.4,2.0,5.0,70.0,平层,0,1,1,0,1,1,0,0,1,1,121.58893392489442,38.9591894722459
22,122.0,13216.3,精,92.31,2012.0,2.0,2.0,翡翠春城$,甘井子,叠翠$,板楼$,钢混,0.6666666666666666,2.0,3.0,70.0,平层,0,0,0,0,0,0,0,0,0,0,121.52920887304602,38.91464022213683
20,118.0,12084.0,简,97.65,2011.0,2.0,1.0,安邦阳光润城$,甘井子,叠翠$,板楼$,钢混,0.6666666666666666,2.0,3.0,70.0,平层,0,0,1,0,1,1,0,0,1,0,121.53618657338296,38.913337636989475
25,48.0,11304.8,简,42.46,1997.0,1.0,1.0,泡崖二区$,甘井子,泡崖市场$,板楼$,砖混,0.3333333333333333,1.0,3.0,70.0,平层,0,0,1,0,1,0,0,0,0,1,121.56269570282993,38.97824189066711
59,175.0,17292.5,精,101.2,2005.0,3.0,1.0,新华同仁轩$,沙河口,阳光月秀$,板楼$,钢混,0.5,1.0,2.0,70.0,平层,0,0,1,0,1,1,1,0,1,0,121.5802468012737,38.93398049368696
119,103.0,12469.7,简,82.6,2000.0,2.0,1.0,台山$,沙河口,南沙$,板楼$,砖混,0.3333333333333333,1.0,3.0,70.0,平层,0,0,1,0,1,0,1,0,1,1,112.80044482505359,22.257923470251228
29,78.5,12729.0,简,61.67,1995.0,2.0,1.0,集贤北街$,沙河口,太原街$,板楼$,钢混,0.3333333333333333,1.0,3.0,70.0,平层,0,1,1,0,0,0,0,0,0,0,121.60088403907669,38.909394566884735
40,197.8,16955.3,精,116.66,2016.0,3.0,1.0,中航华府$,甘井子,体育新城$,板楼$,钢混,0.5,1.0,2.0,70.0,平层,0,0,1,0,0,0,0,0,0,0,121.55968360809901,39.014867745056534
4,106.0,12048.2,精,87.98,1999.0,3.0,2.0,泡崖五区$,甘井子,泡崖市场$,板楼$,砖混,0.5,1.0,2.0,70.0,平层,0,0,1,0,1,1,0,0,1,1,121.66627367521671,39.53627955117536
15,118.0,10667.1,简,110.62,2007.0,3.0,2.0,泡崖康顺园$,甘井子,泡崖八区$,板楼$,钢混,0.5,1.0,2.0,70.0,平层,0,1,1,0,1,1,0,1,0,1,121.55200813638092,38.98966538275035
48,67.9,12345.5,精,55.0,2007.0,2.0,1.0,生辉第一城$,金州,城润$,板楼$,钢混,0.2857142857142857,2.0,7.0,70.0,跃层,0,1,1,1,1,1,0,0,1,1,121.74764023359774,39.058098214323216
28,68.5,9013.2,精,76.0,2003.0,2.0,1.0,湾里南小区$,开发区,金湾新城$,板楼$,钢混,0.3333333333333333,1.0,3.0,70.0,平层,0,0,1,1,1,1,0,0,1,0,121.85916984376554,39.06967041099975
62,59.8,10663.3,简,56.08,1994.0,2.0,1.0,杏环街$,西岗,八一路$,板楼$,砖混,0.3333333333333333,1.0,3.0,70.0,平层,0,0,0,0,0,0,0,0,1,1,121.65066902066043,38.88935020010169
32,189.0,20487.8,简,92.25,2008.0,2.0,1.0,西山园中园$,沙河口,南沙$,板楼$,钢混,0.3333333333333333,1.0,3.0,70.0,暂无数据,0,0,0,0,1,1,0,1,0,1,121.56585377220624,38.90971331825962
27,150.0,13139.5,精,114.16,2015.0,3.0,2.0,中海御湖熙谷$,甘井子,溪之谷$,板楼$,钢混,0.5,1.0,2.0,70.0,平层,0,0,1,0,1,0,0,0,1,1,121.48921651386054,38.92704976679372
32,72.0,12080.5,简,59.6,1994.0,2.0,1.0,香炉礁$,西岗,香炉礁$,板楼$,砖混,0.3333333333333333,1.0,3.0,70.0,平层,0,1,1,1,1,1,1,0,0,0,121.62212843708234,38.950923584890575
64,190.0,25988.2,简,73.11,1990.0,3.0,1.0,34中三元街$,西岗,唐山街$,板楼$,砖混,0.5,1.0,2.0,70.0,平层,0,1,1,0,1,1,0,0,0,0,0,0
24,98.0,11152.8,精,87.87,2007.0,2.0,1.0,绿洲半岛北岸$,开发区,海富$,板楼$,钢混,0.6666666666666666,2.0,3.0,50.0,平层,0,0,0,0,0,0,0,0,0,0,121.80916704285836,39.027172071236684
50,125.0,19713.0,简,63.41,2015.0,2.0,1.0,亿达云集$,中山,青云街$,板楼$,框架,0.4,2.0,5.0,70.0,平层,0,0,1,0,1,1,0,0,1,0,121.65287328811065,38.9021928345487
17,135.0,13165.6,精,102.54,2008.0,2.0,2.0,龙畔金泉五期K2区$,甘井子,泉水龙畔金泉$,板楼$,钢混,0.5,1.0,2.0,70.0,平层,0,1,0,0,0,0,0,0,0,0,121.6308499855668,39.01477411209362
26,66.5,14853.7,精,44.77,2014.0,1.0,1.0,亿锋广场一期$,开发区,红梅翠竹$,板楼$,钢混,0.4,2.0,5.0,50.0,平层,0,0,1,1,0,1,1,1,1,1,121.75642118163574,39.05248124255919
29,107.0,15523.0,精,68.93,2007.0,2.0,1.0,锦泉源D1区$,甘井子,泉水锦泉源$,板楼$,钢混,0.3333333333333333,1.0,3.0,70.0,平层,0,1,1,1,0,0,0,0,0,1,121.61768702509855,39.01348308242818
74,139.5,19860.5,精,70.24,2010.0,2.0,1.0,山海一家三期$,高新园区,华录$,板楼$,钢混,0.3333333333333333,1.0,3.0,70.0,平层,0,1,0,0,0,0,0,0,0,0,121.52187449960803,38.85468223242057
27,46.5,11019.0,简,42.2,1988.0,2.0,0.0,新街$,甘井子,甘井子$,板楼$,钢混,0.25,1.0,4.0,70.0,平层,0,1,1,0,0,0,0,0,0,1,121.59193700782447,38.920490093452365
10,159.0,12832.9,毛,123.9,1999.0,3.0,2.0,岭前街$,中山,青云街$,板楼$,钢混,0.25,1.0,4.0,70.0,平层,0,0,0,0,0,0,0,0,0,1,121.65618385383031,38.898677352573806
72,87.0,16057.6,精,54.18,2005.0,1.0,1.0,部居逸阁$,中山,武昌街$,板楼$,钢混,0.08333333333333333,1.0,12.0,70.0,平层,0,0,1,0,1,0,0,0,0,1,121.65267943198499,38.91209651886313
47,138.0,12347.9,精,111.76,2006.0,3.0,2.0,金马圣隆$,甘井子,机场乐购$,板楼$,钢混,0.5,1.0,2.0,70.0,平层,0,1,1,0,0,0,0,0,1,0,121.52169935518613,38.960518328311544
16,63.0,8102.9,精,77.75,2004.0,2.0,1.0,金园新村$,金州,金华$,板楼$,钢混,0.3333333333333333,1.0,3.0,70.0,平层,0,0,0,0,0,0,0,0,0,0,121.71542762143395,39.11976233772262
18,100.0,14558.2,精,68.69,1990.0,2.0,1.0,由家村$,高新园区,软件园$,板楼$,钢混,0.25,1.0,4.0,70.0,平层,0,1,1,0,0,1,1,0,1,0,121.54842093298792,38.893939506288305
37,246.0,22693.7,简,108.4,2007.0,2.0,2.0,壹品星海三期$,沙河口,星海广场$,塔楼$,钢混,0.5,3.0,6.0,70.0,平层,0,1,1,0,1,1,0,1,0,1,121.5849286034052,38.88638015449039
55,182.0,20965.3,精,86.81,2004.0,2.0,2.0,兰溪文苑$,沙河口,辽师$,板楼$,钢混,0.5,1.0,2.0,70.0,平层,0,1,1,0,0,0,0,0,1,0,121.56703066561079,38.919495006298284
18,76.0,8303.3,简,91.53,2009.0,2.0,2.0,憬园河畔$,金州,古城汇金$,板楼$,钢混,0.5,1.0,2.0,70.0,平层,0,0,1,0,1,1,0,0,1,0,121.7297974778125,39.13085218373315
13,78.0,19089.6,精,40.86,2007.0,1.0,1.0,菁英汇$,高新园区,万达$,板楼$,钢混,0.21052631578947367,4.0,19.0,70.0,暂无数据,0,1,1,0,1,0,1,1,0,1,121.53693408214359,38.86588543412164
25,224.0,17510.9,毛,127.92,2012.0,3.0,2.0,远洋广场$,甘井子,华南$,板楼$,钢混,0.5,2.0,4.0,70.0,平层,0,1,0,0,0,0,0,0,0,0,121.61614032267146,38.92300347845314
18,31.5,9545.5,精,33.0,2009.0,1.0,1.0,新希望家园$,金州,城润$,塔楼$,钢混,0.13333333333333333,2.0,15.0,70.0,平层,0,1,1,1,1,1,0,1,1,1,121.75030429243509,39.06032095790547
21,150.0,14066.0,精,106.64,2016.0,3.0,1.0,华润海中国六期$,开发区,华润海中国$,板楼$,钢混,1.0,2.0,2.0,50.0,平层,0,0,1,0,1,0,0,0,0,0,121.76805600136368,39.04110807394385
21,216.0,19552.8,精,110.47,2010.0,2.0,2.0,金寓花园四期$,甘井子,机场$,板楼$,钢,0.5,1.0,2.0,70.0,平层,0,1,0,0,1,1,0,0,0,0,121.55429881543137,38.95928719919636
31,94.5,14858.5,精,63.6,2014.0,2.0,1.0,亿锋广场一期$,开发区,红梅翠竹$,板楼$,钢混,0.5,2.0,4.0,50.0,平层,0,0,1,1,1,0,0,0,0,1,121.75890837669446,39.05070938480522
33,135.0,11440.7,精,118.0,2005.0,2.0,1.0,北欧假日$,开发区,松峪$,塔楼$,钢混,0.2857142857142857,2.0,7.0,50.0,平层,0,0,1,0,1,0,0,0,0,1,121.77929559990451,39.04473949095962
39,116.0,22307.7,精,52.0,1992.0,2.0,1.0,实验小学英华街$,西岗,英华街$,板楼$,砖混,0.3333333333333333,1.0,3.0,70.0,平层,0,1,0,0,0,0,0,0,0,0,121.63276764235592,38.92099892000092
29,203.0,21036.3,毛,96.5,2018.0,3.0,2.0,三鼎春天$,甘井子,第五郡$,板楼$,钢混,0.5,1.0,2.0,70.0,平层,0,0,0,0,1,1,0,0,0,1,121.52773970157088,38.95157664728067
13,155.0,16581.1,精,93.48,2012.0,3.0,1.0,枣园万象$,甘井子,山东路$,板楼$,钢混,0.3333333333333333,1.0,3.0,70.0,平层,0,1,1,0,0,0,0,0,0,0,121.59657916324228,38.98707825712343
70,103.0,17715.9,精,58.14,2014.0,1.0,0.0,悦丽海湾$,高新园区,小平岛$,板楼$,钢混,0.5,2.0,4.0,70.0,平层,0,1,0,0,0,0,0,0,1,0,121.51668397359165,38.845470362379245
21,135.0,15340.9,精,88.0,2009.0,2.0,2.0,华润海中国一期$,开发区,华润海中国$,板楼$,钢混,0.5,2.0,4.0,50.0,平层,0,0,1,0,1,1,0,0,0,1,121.75727920982158,39.04282909035126
36,202.0,23296.0,毛,86.71,2018.0,2.0,2.0,龙湖星海彼岸$,高新园区,高新园区$,板楼$,钢混,1.0,2.0,2.0,70.0,平层,0,1,0,0,0,0,0,0,0,0,121.53724367145963,38.86149430172784
16,68.0,6319.7,简,107.6,1993.0,3.0,2.0,杏花里$,开发区,杏花里$,板楼$,钢混,0.25,1.0,4.0,0.0,平层,0,0,0,1,1,1,0,0,0,0,121.78463005871782,39.08290355319456
20,159.0,10497.1,毛,151.47,2009.0,3.0,1.0,万国宫馆一期$,开发区,红梅翠竹$,板楼$,钢混,0.4,2.0,5.0,50.0,平层,0,0,0,1,1,0,0,0,0,1,121.75888535042932,39.04527736616778
35,64.5,11168.8,精,57.75,2003.0,2.0,1.0,泡崖美林园$,甘井子,美林园$,板楼$,钢混,0.3333333333333333,1.0,3.0,70.0,平层,0,1,1,0,1,1,0,1,1,1,121.52588921557629,38.97887829733051
33,93.3,12911.7,精,72.26,1999.0,2.0,1.0,水彩巷$,甘井子,山东路$,板楼$,钢混,0.3333333333333333,1.0,3.0,70.0,平层,0,1,1,0,1,0,0,0,0,1,121.58388115762122,38.98282554480456
64,205.0,19277.8,毛,106.34,2016.0,3.0,2.0,宏都熙景$,甘井子,华南$,板楼$,钢混,1.0,2.0,2.0,70.0,平层,0,1,1,0,1,0,0,0,0,1,121.5994155736697,39.00478633493204
26,146.0,17615.8,精,82.88,2004.0,2.0,2.0,亲亲家园$,甘井子,西山水库$,板楼$,钢混,0.5,1.0,2.0,70.0,平层,0,1,0,0,0,0,0,0,0,0,121.54987077203016,38.92858041390463
209,73.0,9964.5,简,73.26,1993.0,3.0,1.0,北昌平小区$,沙河口,西安路$,板楼$,砖混,0.3333333333333333,1.0,3.0,70.0,平层,0,1,1,0,0,1,0,0,0,1,121.56487815942236,38.90285927867023
98,61.0,7244.7,毛,84.2,2015.0,2.0,1.0,中体奥林匹克花园$,甘井子,溪之谷$,板楼$,钢混,0.5,2.0,4.0,0.0,平层,0,0,1,0,1,1,0,0,1,1,121.50025756442605,38.91029254202415
26,114.0,18009.5,精,63.3,2012.0,2.0,1.0,远洋广场$,甘井子,华南$,板楼$,钢混,0.2857142857142857,2.0,7.0,70.0,平层,0,1,1,0,0,1,0,0,0,1,121.58960473722891,38.9974906649862
37,72.0,11397.8,精,63.17,1992.0,2.0,1.0,侯二小区$,沙河口,侯家沟$,板楼$,砖混,0.3333333333333333,1.0,3.0,70.0,平层,0,1,1,0,1,1,1,0,0,0,121.59007102695813,38.933812737033655
46,105.0,12945.4,简,81.11,1999.0,2.0,2.0,锦霞北园$,沙河口,锦华$,板楼$,混合,0.5,1.0,2.0,70.0,平层,0,1,1,0,0,0,0,0,0,0,121.5525485875181,38.95006883337896
33,212.0,19278.0,毛,109.97,2015.0,2.0,2.0,亿达云集$,中山,青云街$,板楼$,框架,0.5,2.0,4.0,70.0,平层,0,0,0,0,0,0,0,0,0,0,121.65287328811065,38.9021928345487
39,66.5,8478.9,精,78.43,2003.0,2.0,1.0,湾里南小区$,开发区,金湾新城$,板楼$,钢混,0.25,1.0,4.0,40.0,平层,0,0,1,1,1,1,0,0,1,0,121.85916984376554,39.06967041099975
115,170.0,19767.4,简,86.0,2014.0,2.0,1.0,悦丽海湾$,高新园区,小平岛$,板楼$,钢混,0.25,2.0,8.0,70.0,平层,0,1,0,1,0,0,0,0,0,1,121.51668397359165,38.845470362379245
9,69.5,16211.8,精,42.87,2004.0,2.0,1.0,东特新天地$,甘井子,周水子$,板楼$,钢混,0.1,2.0,20.0,70.0,复式,0,0,1,0,0,1,0,0,0,1,121.56986698890258,38.952413759994435
33,73.5,12102.7,简,60.73,2000.0,2.0,1.0,刘家桥$,沙河口,春柳$,板楼$,砖混,0.5,1.0,2.0,70.0,平层,0,0,1,0,1,1,0,0,0,1,121.5771788364316,38.9514294603593
78,85.8,12917.8,简,66.42,2005.0,2.0,1.0,泡崖美林园$,甘井子,美林园$,板楼$,钢,0.3333333333333333,1.0,3.0,70.0,平层,0,1,1,0,1,1,0,0,0,1,121.52588921557629,38.97887829733051
24,94.0,16030.0,精,58.64,2013.0,2.0,1.0,枫丹丽城$,甘井子,泉水美域盛景$,板楼$,钢混,0.5,2.0,4.0,70.0,平层,0,0,0,0,0,0,0,0,1,0,121.62052248511873,39.01016428270067
23,132.0,14768.4,简,89.38,2000.0,3.0,2.0,碧浪园一期$,中山,虎滩$,板楼$,砖混,0.5,1.0,2.0,70.0,平层,0,0,1,0,1,0,0,0,1,1,121.69262484123297,38.89452125888715
15,92.0,15667.6,简,58.72,2004.0,2.0,2.0,千山心城$,甘井子,山东路$,板楼$,钢混,0.3333333333333333,1.0,3.0,70.0,平层,0,1,1,0,0,0,0,0,0,0,121.57869821060844,38.98266707097553
10,170.0,13363.7,精,127.21,2013.0,3.0,1.0,华润海中国三期$,开发区,华润海中国$,板楼$,钢混,0.5,2.0,4.0,50.0,平层,0,0,0,0,0,0,0,0,0,0,121.76150942389182,39.04231605807281
22,139.0,19413.4,精,71.6,1996.0,2.0,1.0,长春花园$,西岗,北京公园$,板楼$,钢混,0.3333333333333333,1.0,3.0,70.0,平层,0,1,0,0,0,0,0,0,1,0,121.61419396412299,38.92573592400612
167,123.0,13381.2,精,91.92,2012.0,3.0,2.0,万科溪之谷$,甘井子,溪之谷$,板楼$,钢混,0.25,1.0,4.0,70.0,平层,0,0,1,0,1,1,0,0,0,1,121.48045379064472,38.91483322778244
27,117.0,16027.4,精,73.0,2017.0,2.0,1.0,中航华府$,甘井子,体育新城$,板楼$,钢混,0.5,2.0,4.0,70.0,平层,0,0,0,0,0,0,0,0,0,0,121.55968360809901,39.014867745056534
14,152.0,16450.2,精,92.4,2008.0,2.0,1.0,东港印象DE区$,中山,寺儿沟$,板楼$,钢混,0.5,2.0,4.0,70.0,平层,0,0,0,0,1,0,0,0,1,0,121.67890897102842,38.91878818293758
55,66.0,7095.2,毛,93.02,2015.0,2.0,2.0,一方天鹅湖$,开发区,高城山$,板楼$,钢混,0.3333333333333333,1.0,3.0,70.0,平层,0,0,0,1,1,0,0,1,0,1,121.83464055900154,39.154263934467735
24,109.0,15057.3,简,72.39,1998.0,2.0,2.0,恒达花园（沙河口）$,沙河口,辽师$,板楼$,钢混,0.5,1.0,2.0,70.0,平层,0,1,0,0,0,1,0,0,0,0,121.59450670056631,38.913544290955585
36,85.0,11426.3,简,74.39,2002.0,2.0,1.0,兴工街$,沙河口,西安路$,板楼$,钢混,0.2,1.0,5.0,70.0,平层,0,1,0,0,0,0,0,0,0,0,121.5929379519254,38.92461395510886
9,80.0,10666.7,简,75.0,1989.0,3.0,1.0,刘家桥$,沙河口,春柳$,板楼$,砖混,0.3333333333333333,1.0,3.0,70.0,平层,0,0,0,0,0,0,0,0,0,0,121.5771788364316,38.9514294603593
25,115.0,14232.7,精,80.8,2016.0,2.0,1.0,华润海中国六期$,开发区,华润海中国$,板楼$,钢混,0.6666666666666666,2.0,3.0,50.0,平层,1,0,1,0,1,0,1,0,1,1,121.76805600136368,39.04110807394385
139,273.0,19960.5,精,136.77,2015.0,3.0,2.0,星海国府$,沙河口,黑石礁$,板楼$,钢混,1.0,2.0,2.0,70.0,平层,0,1,1,0,0,0,0,0,1,0,121.56570495711883,38.88623803536575
145,207.0,18921.4,精,109.4,2002.0,2.0,1.0,海昌欣城$,中山,华乐$,板楼$,钢混,0.5,2.0,4.0,70.0,平层,0,0,1,0,0,0,0,0,0,1,121.69241999433939,38.91885541223645
18,162.0,16025.3,精,101.09,2007.0,3.0,2.0,动力院景三期汇善园$,甘井子,华南$,板楼$,钢混,0.25,1.0,4.0,70.0,平层,0,1,1,0,0,0,0,0,0,0,121.58710097561998,39.00096494789614
7,105.0,11356.3,精,92.46,2009.0,2.0,2.0,海富经典$,开发区,海富$,塔楼$,钢混,0.25,2.0,8.0,50.0,跃层,0,0,1,0,1,1,0,0,1,0,121.80773704648652,39.03463014059852
15,75.0,10725.0,简,69.93,1995.0,2.0,1.0,锦江园$,沙河口,锦绣$,板楼$,砖混,0.3333333333333333,1.0,3.0,70.0,平层,0,0,0,0,1,1,0,0,0,0,121.56646971873508,38.950666299910104
40,113.5,10898.8,简,104.14,1998.0,3.0,2.0,绿波B区$,沙河口,春柳$,板楼$,砖混,0.5,1.0,2.0,70.0,平层,0,1,0,0,0,0,0,0,0,0,121.57786692946918,38.938943001346765
22,105.0,11851.0,毛,88.6,2012.0,2.0,1.0,大连海湾城一期$,开发区,华润海中国$,板楼$,钢混,0.5,2.0,4.0,50.0,平层,0,0,1,0,1,1,0,0,0,1,121.75396598960911,39.04239207976784
24,40.0,6438.1,简,62.13,2002.0,2.0,1.0,高城花园$,开发区,高城山$,板楼$,砖混,0.3333333333333333,1.0,3.0,0.0,平层,0,0,0,0,1,0,0,0,1,0,121.82615844666431,39.07254593954587
17,133.0,14600.9,精,91.09,2014.0,3.0,2.0,万科朗润园$,甘井子,魅力之城$,板楼$,钢混,0.5,1.0,2.0,70.0,平层,0,1,1,0,1,1,0,0,0,1,121.51646427501309,38.99908746150524
29,135.8,14923.1,简,91.0,2014.0,2.0,1.0,金地檀溪$,甘井子,泉水龙畔金泉$,板楼$,钢混,0.5,1.0,2.0,70.0,平层,0,0,0,0,0,0,0,0,0,0,121.63947016746091,39.00876346378694
26,87.0,13978.1,简,62.24,1995.0,2.0,1.0,台山$,沙河口,南沙$,板楼$,砖混,0.3333333333333333,1.0,3.0,70.0,平层,0,0,0,0,0,0,0,0,0,0,112.80044482505359,22.257923470251228
24,69.8,12245.6,简,57.0,1996.0,2.0,1.0,锦泉南园$,沙河口,锦绣$,板楼$,砖混,0.25,1.0,4.0,70.0,平层,0,0,0,0,0,0,0,0,0,0,121.56319400277768,38.944801560776106
41,108.0,14210.5,精,76.0,2012.0,2.0,1.0,万科魅力之城$,甘井子,魅力之城$,板楼$,钢混,0.5,2.0,4.0,70.0,平层,0,1,1,0,0,0,0,0,0,1,121.52256275973045,38.996118699254794
64,36.5,7054.5,精,51.74,2009.0,1.0,1.0,和嘉佳园$,金州,站前$,板楼$,钢混,0.5,2.0,4.0,70.0,平层,0,0,1,0,1,1,0,0,0,1,121.72615783763196,39.09137935546234
6,60.0,6968.6,精,86.1,2012.0,2.0,2.0,亿城御景湾$,普兰店,普兰店$,未知$,未知,0.5,1.0,2.0,70.0,平层,0,0,0,0,0,0,0,0,1,0,121.96750594011655,39.42052848328504
17,115.0,12956.3,简,88.76,2001.0,2.0,1.0,金海花园西园$,西岗,香炉礁$,板楼$,钢混,0.3333333333333333,1.0,3.0,70.0,平层,0,1,1,1,0,0,0,0,1,1,121.60738150349138,38.94140879395716
36,109.8,14418.9,精,76.15,2012.0,2.0,1.0,万科魅力之城$,甘井子,魅力之城$,板楼$,钢混,0.5,2.0,4.0,70.0,平层,0,1,1,0,0,0,0,0,0,1,121.52256275973045,38.996118699254794
12,210.0,21186.4,精,99.12,2016.0,2.0,2.0,远洋钻石湾三期$,甘井子,鹏辉$,板楼$,钢混,1.0,2.0,2.0,70.0,平层,0,0,1,1,1,1,0,0,1,1,121.61551159864503,38.95712981746473
144,145.0,18415.0,精,78.74,2009.0,2.0,2.0,哈佛映像$,高新园区,凌水$,板楼$,钢混,0.5,1.0,2.0,70.0,平层,0,0,1,0,1,1,0,0,0,1,121.5150872562087,38.882268777632284
28,84.0,13548.4,精,62.0,1989.0,2.0,1.0,千山路$,甘井子,山东路$,板楼$,砖混,0.3333333333333333,1.0,3.0,70.0,平层,0,1,0,0,1,0,0,0,0,0,121.58814421643585,38.98528697769128
20,219.8,25552.2,精,86.02,2008.0,2.0,2.0,福佳绿都$,甘井子,金三角$,板楼$,钢混,0.5,1.0,2.0,70.0,平层,0,0,1,1,1,0,0,0,0,1,121.60046932106681,38.97855472961312
192,66.0,14282.6,精,46.21,2006.0,1.0,0.0,city one$,高新园区,one$所在区域:高新园区 软件园$,板楼$,钢混,0.06,3.0,50.0,70.0,平层,0,1,0,0,1,1,0,0,0,1,0,0
27,147.0,26100.9,精,56.32,1990.0,2.0,1.0,34中胜利路$,西岗,唐山街$,板楼$,钢混,0.09090909090909093,1.0,11.0,70.0,平层,0,1,0,0,0,0,0,0,0,0,121.61482261448838,38.908609695255194
20,132.8,14791.7,精,89.78,2009.0,2.0,2.0,泉水家年华$,甘井子,泉水美域盛景$,板楼$,钢混,0.5,1.0,2.0,70.0,平层,0,0,1,1,1,1,0,0,1,1,121.62977789297456,39.01625356593743
121,136.0,16248.5,精,83.7,2007.0,2.0,2.0,柏林水郡$,高新园区,凌水$,板楼$,钢混,0.5,1.0,2.0,70.0,平层,0,0,0,0,1,1,1,0,0,1,121.50884227133726,38.880089828731116
47,175.0,17802.6,毛,98.3,2017.0,3.0,2.0,亿达普罗旺斯三期$,高新园区,普罗旺斯$,板楼$,钢混,1.0,2.0,2.0,70.0,平层,0,1,0,0,0,0,0,0,0,0,121.49345999680148,38.858402104460424
30,153.0,17951.4,精,85.23,2006.0,2.0,2.0,阳光月秀$,沙河口,阳光月秀$,板楼$,钢混,0.5,1.0,2.0,70.0,平层,0,0,1,0,1,1,1,0,1,0,121.5760348228053,38.934825492099485
44,242.0,19674.8,精,123.0,2004.0,3.0,2.0,欧洲小镇$,中山,中南$,板楼$,钢混,0.5,1.0,2.0,70.0,平层,0,0,1,0,1,1,0,0,0,0,121.67847756340046,38.89784322444249
10,147.0,25428.1,精,57.81,1990.0,2.0,1.0,34中纪念街$,西岗,唐山街$,板楼$,砖混,0.16666666666666666,1.0,6.0,70.0,平层,0,1,0,0,0,0,0,0,0,0,121.62407890088697,38.90725002262485
49,55.0,8785.9,简,62.6,2008.0,2.0,1.0,城润万家$,开发区,城润$,板楼$,钢混,0.6666666666666666,2.0,3.0,50.0,平层,0,0,0,1,1,0,0,0,0,0,121.75486958883346,39.060070069002506
21,106.8,24642.4,精,43.34,1990.0,2.0,1.0,实验小学同庆街$,西岗,英华街$,板楼$,混合,0.3333333333333333,1.0,3.0,70.0,平层,0,1,1,0,0,1,0,0,1,1,121.63276764235592,38.92099892000092
11,177.0,18631.6,精,95.0,2018.0,3.0,2.0,万科新都会$,甘井子,南关岭$,板楼$,钢混,0.5,1.0,2.0,70.0,平层,0,0,0,0,0,0,0,0,0,0,121.5824650050356,39.03375807499261
12,176.0,19559.9,精,89.98,2006.0,2.0,2.0,福典人家$,甘井子,锦华$,板楼$,钢混,0.5,1.0,2.0,70.0,平层,0,1,0,0,1,0,1,0,0,1,121.55543024289913,38.956771910844076
16,46.0,7301.6,简,63.0,2006.0,2.0,1.0,裕民新苑$,开发区,东城$,板楼$,钢混,0.3333333333333333,1.0,3.0,50.0,平层,0,0,0,0,0,0,0,0,0,0,121.85079666085277,39.07250013030995
18,134.8,16695.6,精,80.74,2004.0,2.0,1.0,椒金山庄$,甘井子,金三角$,板楼$,钢混,0.3333333333333333,1.0,3.0,70.0,平层,0,1,0,0,0,0,0,0,0,0,121.6160892674778,38.97766509380751
21,76.5,9901.6,精,77.26,2005.0,2.0,1.0,东城天下$,开发区,东城$,板楼$,钢混,0.5,1.0,2.0,50.0,平层,0,0,0,1,1,1,0,0,0,0,121.84724109218661,39.07191843110481
47,93.0,19354.8,精,48.05,2007.0,1.0,1.0,万达华府二期$,西岗,华府$,塔楼$,钢混,0.3,3.0,10.0,70.0,平层,0,1,1,0,1,0,0,0,1,1,121.61229983036195,38.91913679435147
36,75.0,10573.8,精,70.93,1995.0,2.0,1.0,南沙$,沙河口,南沙$,板楼$,钢混,0.3333333333333333,1.0,3.0,70.0,平层,0,0,0,0,1,1,1,0,1,0,113.5314355437236,22.807929296528254
16,97.0,10430.1,精,93.0,2010.0,2.0,1.0,热岛黄金海岸$,开发区,华润海中国$,板楼$,钢混,0.5,2.0,4.0,50.0,平层,0,0,1,0,0,0,0,0,1,0,121.76889117845394,39.04002069842227
42,143.0,15794.1,精,90.54,2008.0,2.0,2.0,万科假日风景$,甘井子,万科假日$,板楼$,钢混,0.5,1.0,2.0,70.0,平层,0,0,0,0,0,0,0,0,0,0,121.5256159914639,38.94069975196488
8,59.8,10722.6,精,55.77,2000.0,2.0,2.0,彩霞园$,甘井子,前程街$,板楼$,砖混,0.3333333333333333,1.0,3.0,70.0,复式,0,0,0,0,0,0,0,0,0,0,121.55687338058229,38.93528256107525
53,242.0,20268.0,精,119.4,2008.0,2.0,2.0,东方圣荷西$,沙河口,软件园$,板楼$,钢混,0.5,2.0,4.0,70.0,平层,0,0,0,0,0,0,0,0,0,1,121.56367980190593,38.898980609437196
39,64.5,10448.7,精,61.73,1995.0,2.0,1.0,林茂小区$,西岗,石道街$,板楼$,砖混,0.16666666666666666,1.0,6.0,70.0,平层,0,0,1,0,1,0,0,0,0,1,121.63878153544002,38.898604303733805
56,55.0,10544.5,简,52.16,1985.0,2.0,1.0,柳华街$,沙河口,春柳$,板楼$,砖混,0.3333333333333333,1.0,3.0,70.0,平层,0,0,1,0,1,1,0,0,0,1,121.57938775440944,38.94827224318989
24,146.0,14722.2,精,99.17,2001.0,3.0,2.0,金海花园西园$,西岗,香炉礁$,板楼$,钢混,0.3333333333333333,1.0,3.0,70.0,平层,0,0,1,1,1,0,0,0,0,1,121.60738150349138,38.94140879395716
11,84.0,14000.0,简,60.0,1990.0,2.0,1.0,迎客路（机场商圈）$,甘井子,机场$,板楼$,砖混,0.3333333333333333,1.0,3.0,70.0,平层,0,1,1,0,1,1,0,0,0,1,121.56651217175518,38.95809125820514
19,106.0,12851.6,精,82.48,2005.0,2.0,1.0,锦泉源D2区$,甘井子,泉水锦泉源$,板楼$,钢混,0.3333333333333333,2.0,6.0,70.0,平层,0,1,0,1,0,0,0,0,1,0,121.61768702509855,39.01348308242818
43,129.0,17479.7,精,73.8,2009.0,2.0,1.0,东方星海$,沙河口,星海广场$,塔楼$,钢混,0.25,4.0,16.0,70.0,平层,0,1,1,0,1,0,0,0,0,1,121.5898009442201,38.890021182139265
15,72.0,9004.5,精,79.96,2003.0,2.0,1.0,湾里南小区$,开发区,金湾新城$,板楼$,钢混,0.25,1.0,4.0,0.0,平层,0,0,1,1,1,1,0,0,1,0,121.85916984376554,39.06967041099975
62,115.0,27531.7,精,41.77,1970.0,2.0,1.0,34中兴民街$,西岗,唐山街$,板楼$,砖混,0.1,1.0,10.0,70.0,平层,0,1,1,0,1,1,0,0,1,1,121.62684576001028,38.91363142523257
53,180.0,12328.8,精,146.0,1998.0,3.0,2.0,爱我家园$,开发区,红梅翠竹$,板楼$,钢混,0.5,1.0,2.0,50.0,平层,0,0,0,0,0,0,0,0,0,0,121.85703282256749,39.071129007624826
62,75.0,14016.1,精,53.51,2012.0,1.0,0.0,MINI印象$,高新园区,高新园区$,塔楼$,钢混,0.125,6.0,48.0,70.0,平层,0,1,0,0,0,1,1,0,0,0,121.53094001196717,38.86464631837938
67,156.0,18886.2,简,82.6,2010.0,2.0,1.0,亿达峦翠园$,高新园区,庙岭$,板楼$,钢混,0.3333333333333333,1.0,3.0,70.0,平层,0,0,1,0,0,0,0,0,0,1,121.53154819533984,38.89687725546328
39,119.0,12884.4,精,92.36,2012.0,3.0,2.0,万科溪之谷$,甘井子,溪之谷$,板楼$,钢混,1.0,2.0,2.0,70.0,平层,0,1,1,0,1,1,0,0,0,1,121.48045379064472,38.91483322778244
19,62.0,11957.6,精,51.85,2014.0,2.0,1.0,泉水P1区$,甘井子,泉水龙畔金泉$,未知$,未知,0.3,3.0,10.0,70.0,平层,0,0,1,1,1,1,0,0,0,1,121.63979452222462,39.01666418397075
43,170.0,17152.7,精,99.11,2007.0,2.0,2.0,北府花园$,甘井子,华南$,板楼$,钢混,0.5,1.0,2.0,70.0,平层,0,1,1,0,1,0,0,0,0,1,121.59633793946708,38.99865144825679
14,149.0,11640.6,精,128.0,2012.0,3.0,1.0,红星海五期青屿蓝$,开发区,红星海$,板楼$,钢混,0.5,2.0,4.0,50.0,平层,0,0,1,0,1,0,0,0,1,1,121.80844875777258,39.018545161900086
8,338.0,28396.2,精,119.03,2005.0,2.0,1.0,万达华府一期$,西岗,华府$,板楼$,钢混,0.5,1.0,2.0,70.0,平层,0,1,1,0,0,1,0,0,0,1,121.61441689660141,38.91771656335195
16,75.5,8936.0,精,84.49,2007.0,2.0,1.0,绿洲半岛北岸$,开发区,海富$,板楼$,钢混,0.3333333333333333,2.0,6.0,50.0,平层,0,0,1,0,1,0,0,0,0,1,121.81077608768783,39.03523909439011
44,94.8,13984.4,精,67.79,2003.0,2.0,1.0,泡崖美林园$,甘井子,美林园$,板楼$,钢混,0.3333333333333333,1.0,3.0,70.0,平层,0,1,1,0,1,1,0,1,0,1,121.52588921557629,38.97887829733051
8,75.0,6944.4,毛,108.0,2013.0,3.0,2.0,世茂御龙海湾$,金州,金州其他$,未知$,钢混,1.0,2.0,2.0,70.0,跃层,0,0,0,0,0,0,0,0,0,0,121.64875099197283,39.18012336992442
59,79.8,10533.3,精,75.76,2016.0,2.0,2.0,一河两公园$,开发区,高城山$,板楼$,钢混,0.6666666666666666,2.0,3.0,50.0,平层,0,0,1,0,1,1,0,0,1,1,0,0
45,160.0,18643.7,精,85.82,2014.0,2.0,1.0,亿达普罗旺斯二期$,高新园区,普罗旺斯$,板楼$,钢混,0.6666666666666666,2.0,3.0,70.0,平层,0,1,0,0,0,0,0,0,0,0,121.49345999680148,38.858402104460424
30,62.8,17517.4,精,35.85,2004.0,2.0,1.0,东特新天地$,甘井子,周水子$,板楼$,钢混,0.08333333333333333,2.0,24.0,70.0,复式,0,0,0,0,0,0,0,0,0,0,121.56984344341686,38.952802573071764
12,164.0,18491.4,精,88.69,2012.0,2.0,1.0,润泽园$,甘井子,泉水美域盛景$,板楼$,钢混,0.5,1.0,2.0,70.0,平层,0,1,1,1,1,1,0,0,0,0,121.80248030726933,39.05074422097938
5,199.0,15669.3,精,127.0,2006.0,3.0,1.0,动力院景一期汇仁南园$,甘井子,华南$,板楼$,钢混,0.5,1.0,2.0,70.0,平层,0,1,0,0,1,1,0,0,1,1,121.58999845375428,39.00043049871292
6,120.0,15197.6,精,78.96,2011.0,2.0,2.0,鑫汇茗苑$,甘井子,华东$,板楼$,钢混,0.3333333333333333,1.0,3.0,70.0,平层,0,1,1,0,1,1,0,0,0,1,121.59964190892939,38.9852721009422
38,107.0,15285.7,精,70.0,2005.0,2.0,1.0,山海一家一期$,高新园区,华录$,塔楼$,钢混,0.25,2.0,8.0,70.0,平层,0,1,1,1,0,0,0,0,1,0,0,0
26,129.0,10473.3,精,123.17,2009.0,3.0,1.0,湖畔嘉园$,金州,碧海$,板楼$,钢混,0.5,1.0,2.0,70.0,平层,0,1,0,0,0,0,0,0,0,0,121.73088555305637,39.10839695418269
7,62.0,8319.9,精,74.52,2003.0,2.0,1.0,格林小镇$,开发区,东山$,板楼$,钢混,0.5,1.0,2.0,70.0,平层,0,0,0,0,0,0,0,0,0,0,121.82146722310463,39.05085959481709
68,125.0,22727.3,简,55.0,1993.0,2.0,1.0,39中明阳街$,中山,三八南$,板楼$,钢混,0.3333333333333333,1.0,3.0,70.0,平层,0,1,1,0,0,0,0,0,0,1,121.66476937640293,38.920629698466094
33,179.5,15698.8,简,114.34,2008.0,3.0,2.0,美域盛景$,甘井子,泉水美域盛景$,板楼$,钢混,0.5,1.0,2.0,70.0,平层,0,0,1,1,0,0,0,0,0,1,121.61022278003976,39.006221362805846
20,69.8,13335.9,精,52.34,1990.0,2.0,1.0,华南沃尔玛六一路$,甘井子,名贵$,板楼$,砖混,0.5,1.0,2.0,70.0,平层,0,1,0,0,0,0,0,0,0,0,121.60097725264625,38.995572544768734
30,70.0,10066.1,精,69.54,2016.0,2.0,1.0,万科城$,金州,金纺$,板楼$,钢混,0.4,2.0,5.0,70.0,平层,0,1,0,0,1,1,0,0,0,0,121.74074640894457,39.09503767305742
40,68.0,11906.8,简,57.11,1993.0,2.0,1.0,侯一小区$,沙河口,侯家沟$,板楼$,砖混,0.3333333333333333,1.0,3.0,70.0,平层,0,1,1,0,0,0,0,0,1,1,121.58538099455156,38.93671712630814
22,88.0,12856.1,简,68.45,2002.0,2.0,1.0,龙畔金泉一期$,甘井子,泉水龙畔金泉$,板楼$,钢混,0.3333333333333333,1.0,3.0,70.0,平层,0,1,0,0,0,0,0,0,0,0,121.62763557896044,39.00132439975652
75,70.0,11496.1,精,60.89,2009.0,2.0,1.0,鑫境界$,甘井子,机场$,板楼$,钢混,0.1,2.0,20.0,40.0,平层,0,1,0,0,0,0,0,0,0,0,121.55214430781825,38.960410110943705
33,233.0,20349.3,毛,114.5,2017.0,2.0,2.0,远洋钻石湾三期$,甘井子,鹏辉$,板楼$,钢混,0.4,2.0,5.0,70.0,平层,0,0,1,0,1,1,0,0,0,1,121.61551159864503,38.95712981746473
133,184.0,21096.1,精,87.22,2014.0,2.0,2.0,悦丽海湾$,高新园区,小平岛$,板楼$,钢混,0.5,2.0,4.0,70.0,平层,0,1,0,0,0,0,0,0,0,0,121.51668397359165,38.845470362379245
27,49.8,7815.4,精,63.72,1993.0,2.0,1.0,杏花里$,开发区,杏花里$,板楼$,钢混,0.3333333333333333,1.0,3.0,50.0,平层,0,0,1,1,1,0,0,0,1,1,121.78463005871782,39.08290355319456
7,130.0,20661.2,毛,62.92,2015.0,2.0,1.0,亿达云集$,中山,青云街$,板楼$,框架,0.5,2.0,4.0,70.0,平层,0,0,0,0,0,0,0,0,0,0,121.65287328811065,38.9021928345487
32,132.0,13417.4,精,98.38,2011.0,2.0,1.0,自由向$,开发区,红梅翠竹$,板楼$,钢混,0.6666666666666666,2.0,3.0,50.0,平层,0,0,1,0,1,1,0,0,1,0,121.7560561776494,39.04651483979776
25,181.0,20122.3,精,89.95,2013.0,2.0,2.0,缇香漫城$,甘井子,机场乐购$,板楼$,钢混,0.5,1.0,2.0,70.0,平层,0,0,1,0,1,1,0,0,0,1,121.5293043413624,38.96466139870839
17,255.0,24401.9,精,104.5,2016.0,3.0,1.0,星海融汇$,沙河口,太原街$,板楼$,钢混,1.0,2.0,2.0,70.0,平层,0,0,1,0,0,0,0,0,1,1,121.60300319477474,38.90250776363948
50,162.0,19290.3,精,83.98,2009.0,2.0,2.0,中海英伦观邸$,沙河口,绿波$,板楼$,钢混,0.5,2.0,4.0,70.0,平层,0,0,1,0,0,0,0,0,1,1,121.56527978373113,38.94229329435486
40,78.0,9856.0,精,79.14,2012.0,2.0,1.0,欣家园一期$,甘井子,前关$,板楼$,钢混,0.3333333333333333,2.0,6.0,70.0,平层,0,0,1,1,1,1,0,0,0,1,121.66030786752826,39.0378732155588
49,99.8,15540.3,精,64.22,2012.0,1.0,1.0,美辰香醒$,甘井子,华东$,板楼$,钢混,0.3333333333333333,2.0,6.0,70.0,平层,0,0,1,0,1,1,0,0,1,0,121.60381564473562,38.99047397562602
25,216.0,16876.3,精,127.99,,3.0,2.0,枫丹丽城$,甘井子,泉水美域盛景$,板楼$,钢混,1.0,1.0,1.0,70.0,平层,0,0,0,1,1,0,0,0,1,1,121.62052248511873,39.01016428270067
67,195.0,18932.0,简,103.0,2007.0,2.0,1.0,运达嘉洲阳光$,中山,二七$,板楼$,框架,0.5,2.0,4.0,70.0,平层,0,1,1,0,0,0,0,0,1,1,121.67524697022714,38.92904100323863
71,86.0,12690.0,精,67.77,2006.0,2.0,1.0,新星绿城二期$,甘井子,机场乐购$,板楼$,钢混,0.5,1.0,2.0,70.0,平层,0,0,0,0,0,0,0,0,0,0,121.51673677778615,38.96564202280645
12,81.0,10714.3,精,75.6,2009.0,2.0,1.0,盐岛湖$,甘井子,前关$,板楼$,钢混,0.25,2.0,8.0,70.0,平层,0,0,1,1,1,0,0,0,0,0,121.65845083288649,39.02488054191063
5,29.0,4341.3,简,66.8,2009.0,2.0,1.0,铭熙水岸二期$,旅顺口,旅顺口$,塔楼$,框架,0.25,1.0,4.0,70.0,跃层,0,0,0,1,1,0,0,0,1,1,121.16001911809568,38.8095079745333
26,240.0,26927.0,精,89.13,2011.0,2.0,1.0,华业玫瑰东方$,沙河口,和平广场$,板楼$,钢混,0.5,2.0,4.0,70.0,平层,0,1,0,0,0,0,0,0,0,0,121.59303680326035,38.90910852560183
73,195.0,19368.3,精,100.68,2003.0,2.0,2.0,丽景春天$,沙河口,丽景$,板楼$,钢混,0.5,1.0,2.0,70.0,平层,0,1,0,0,0,0,0,0,0,0,121.60436084611234,38.929165827981926
30,218.0,17028.6,精,128.02,2008.0,3.0,2.0,壹品漫谷$,高新园区,凌水$,板楼$,钢混,0.5,1.0,2.0,70.0,平层,0,0,0,0,1,1,1,0,1,1,121.51116557864043,38.88673163366836
10,150.0,18980.1,精,79.03,2001.0,2.0,1.0,东北名苑$,甘井子,大纺$,板楼$,钢混,0.25,1.0,4.0,70.0,平层,0,1,1,0,1,1,0,0,1,1,121.59425921111018,38.96153351569862
81,175.0,19680.6,精,88.92,2006.0,2.0,2.0,良运缤纷四季$,沙河口,丽景$,板塔结合$,钢混,0.5,2.0,4.0,70.0,平层,0,1,0,0,0,0,0,0,0,0,0,0
72,42.5,13998.7,精,30.36,1993.0,1.0,1.0,开春巷$,中山,青云街$,板楼$,砖混,0.16666666666666666,1.0,6.0,70.0,平层,0,0,0,0,1,0,0,0,1,0,121.65786688310159,38.90365092524559
19,91.0,11546.8,精,78.81,1995.0,2.0,2.0,马栏小学南$,沙河口,马栏$,板楼$,钢混,0.3333333333333333,1.0,3.0,70.0,平层,0,1,0,0,1,0,0,0,0,0,121.56320121617092,38.93162774504978
45,77.5,11397.1,精,68.0,2012.0,2.0,1.0,红星海三期境界$,开发区,红星海$,板楼$,钢混,0.375,3.0,8.0,50.0,平层,0,0,1,0,0,1,0,0,0,0,121.80196999877353,39.0295960874216
24,198.0,21253.8,精,93.16,2013.0,2.0,2.0,中海紫御观邸二期$,高新园区,中海$,板楼$,钢混,0.5,2.0,4.0,70.0,平层,0,1,1,1,1,1,0,0,1,1,121.52783500459905,38.87082611585169
36,72.73,14353.7,精,50.67,1992.0,2.0,1.0,马栏南街$,沙河口,马栏$,板楼$,砖混,0.16666666666666666,1.0,6.0,70.0,平层,0,1,1,0,1,1,0,0,1,1,121.55886944776447,38.92477222450784
184,158.0,18505.5,精,85.38,2011.0,2.0,1.0,海创半山壹号$,高新园区,七贤岭$,板楼$,钢混,0.6666666666666666,2.0,3.0,70.0,平层,1,1,1,0,0,0,0,0,1,1,122.40204684869718,39.220922012246454
49,52.0,11555.6,毛,45.0,1992.0,2.0,1.0,侯二小区$,沙河口,侯家沟$,板楼$,砖混,0.125,1.0,8.0,70.0,平层,0,1,1,0,1,1,0,0,0,0,121.59007102695813,38.933812737033655
46,43.5,11865.8,精,36.66,1993.0,1.0,1.0,天水街$,甘井子,山东路$,板楼$,砖混,0.25,1.0,4.0,70.0,平层,0,1,1,0,1,0,0,0,1,1,121.59480587492828,38.99023706576139
12,73.0,6357.2,毛,114.83,2003.0,2.0,2.0,青松南里$,开发区,红梅翠竹$,板楼$,钢混,0.25,2.0,8.0,50.0,跃层,0,0,0,0,1,1,0,0,0,1,121.76474208855765,39.04758773975601
19,155.0,16542.2,精,93.7,2007.0,2.0,1.0,水畔香谷$,甘井子,西山水库$,板楼$,钢混,0.5,1.0,2.0,70.0,平层,0,1,1,0,1,0,0,0,0,1,121.53296372000989,38.937515556423314
10,74.0,8824.2,简,83.86,2009.0,2.0,1.0,金华小区三期$,金州,金华$,板楼$,钢混,0.25,1.0,4.0,70.0,平层,0,0,0,0,0,0,0,0,0,0,121.71053195431988,39.11274753822256
62,380.0,29468.8,简,128.95,2002.0,3.0,2.0,南山苑$,中山,三八南$,板楼$,钢混,0.5,1.0,2.0,70.0,平层,0,0,1,0,1,1,0,0,1,1,121.66694396473741,38.918367298843066
11,127.0,16657.9,精,76.24,2012.0,2.0,1.0,亿合城$,甘井子,华南$,板楼$,钢混,0.6,3.0,5.0,70.0,平层,0,1,1,0,1,1,0,0,0,1,121.5939090201817,38.998306654525926
45,91.0,11610.1,精,78.38,2007.0,2.0,1.0,泊林和山$,甘井子,叠翠$,塔楼$,钢混,0.3333333333333333,1.0,3.0,70.0,平层,0,1,0,0,1,1,0,0,1,0,121.54218711764717,38.92402111742112
37,195.0,29903.4,精,65.21,1995.0,2.0,1.0,九中安民街$,中山,中山友好$,板楼$,砖混,0.5,1.0,2.0,70.0,平层,0,1,0,0,0,0,0,0,0,0,121.64753224381964,38.916689838983125
10,66.5,11334.6,简,58.67,1993.0,2.0,1.0,侯一小区$,沙河口,侯家沟$,板楼$,砖混,0.3333333333333333,1.0,3.0,70.0,平层,0,1,0,0,0,0,0,0,0,0,121.58538099455156,38.93671712630814
23,110.0,12359.6,简,89.0,2003.0,2.0,1.0,泡崖美林园$,甘井子,美林园$,板楼$,钢混,0.5,1.0,2.0,70.0,平层,0,1,1,0,1,1,0,0,1,1,121.52588921557629,38.97887829733051
28,325.0,22974.7,简,141.46,2005.0,3.0,2.0,枫合万嘉$,中山,中南$,板楼$,钢混,0.5,1.0,2.0,70.0,平层,0,0,1,0,0,0,0,0,1,1,121.68219757407668,38.892550613886065
66,90.0,15400.4,简,58.44,1992.0,2.0,1.0,21中广电中心$,沙河口,中山公园$,板楼$,砖混,0.16666666666666666,1.0,6.0,70.0,平层,0,1,0,0,0,0,0,0,0,0,0,0
36,168.0,8764.6,精,191.68,2005.0,4.0,2.0,东城天下$,开发区,东城$,板楼$,钢混,0.3333333333333333,1.0,3.0,50.0,平层,0,0,0,0,0,0,0,0,0,0,116.4224009776628,39.93482727239599
54,53.0,14544.5,简,36.44,2011.0,1.0,1.0,观山蝶恋花$,沙河口,马栏$,板楼$,钢混,0.25,2.0,8.0,70.0,平层,0,1,1,0,1,1,0,0,0,1,121.56196594278957,38.935447815009496
81,69.8,11816.5,精,59.07,2012.0,2.0,1.0,君悦晟景$,甘井子,叠翠$,板楼$,钢混,0.125,1.0,8.0,70.0,平层,0,1,1,0,1,1,0,0,1,0,121.53731203789877,38.91364837532266
58,145.0,16734.0,精,86.65,2002.0,2.0,2.0,锦华北园$,沙河口,锦华$,板楼$,钢混,0.5,1.0,2.0,70.0,平层,0,1,0,0,0,0,0,0,0,0,121.54876674198212,38.9502799262837
8,35.0,12644.5,精,27.68,2012.0,1.0,0.0,华润海中国二期$,开发区,华润海中国$,板楼$,钢混,0.4,2.0,5.0,50.0,平层,0,0,1,1,1,1,0,0,1,1,121.75727920982158,39.04282909035126
28,156.0,13805.3,精,113.0,2012.0,3.0,1.0,华润海中国二期$,开发区,华润海中国$,板楼$,钢混,0.5,2.0,4.0,50.0,平层,0,0,1,0,1,1,0,0,0,1,121.75727920982158,39.04282909035126
14,55.0,10956.2,简,50.2,2013.0,2.0,1.0,泉水P2区$,甘井子,泉水龙畔金泉$,板塔结合$,框架,0.25,3.0,12.0,70.0,平层,0,0,1,1,1,1,0,0,0,1,121.63872584678653,39.01467404885782
19,57.0,8243.0,简,69.15,2007.0,2.0,1.0,湾里东$,开发区,金湾新城$,板楼$,钢混,0.5,1.0,2.0,50.0,平层,0,0,1,0,1,1,0,0,1,0,121.86275581378507,39.074533650932494
13,57.8,7032.5,精,82.19,1998.0,2.0,2.0,高民里$,开发区,高城山$,板楼$,钢混,0.5,1.0,2.0,50.0,平层,0,0,0,0,0,0,0,0,0,0,121.83380099368887,39.070170524629006
25,72.0,10575.8,简,68.08,1999.0,3.0,1.0,永胜街（三八广场）$,中山,三八北$,板楼$,砖混,0.3333333333333333,1.0,3.0,70.0,平层,0,1,1,0,0,0,0,0,0,1,121.66381439769663,38.925774731996725
39,192.0,21565.8,精,89.03,2014.0,2.0,2.0,悦丽海湾$,高新园区,小平岛$,板楼$,钢混,0.5,2.0,4.0,70.0,平层,0,1,0,0,0,0,0,0,0,0,121.51668397359165,38.845470362379245
28,215.0,34987.8,精,61.45,2004.0,1.0,1.0,幸福e家三期$,沙河口,幸福e家$,板楼$,钢混,0.19047619047619047,4.0,21.0,70.0,跃层,0,1,1,0,1,1,0,0,0,0,121.58437548616031,38.91270436764537
68,286.0,24377.8,精,117.32,2005.0,3.0,2.0,林语家话$,甘井子,促进路$,板楼$,钢混,0.5,1.0,2.0,70.0,平层,0,1,0,0,0,0,0,0,0,0,121.58545977594478,38.95974441554821
4,73.8,9522.6,精,77.5,2003.0,2.0,1.0,泡崖美林园$,甘井子,美林园$,板楼$,钢混,0.5,1.0,2.0,70.0,平层,0,1,0,0,0,0,0,0,0,0,121.52613172752159,38.9796547015976
35,245.0,21108.0,精,116.07,2003.0,3.0,2.0,鹏辉新世纪三期北园$,甘井子,鹏辉$,板楼$,钢混,0.5,1.0,2.0,70.0,平层,0,0,1,0,0,0,0,0,1,1,121.60652099777896,38.95972907622289
7,59.0,12644.7,精,46.66,1986.0,1.0,1.0,山东路$,甘井子,山东路$,板楼$,砖混,0.1,1.0,10.0,70.0,平层,0,1,0,0,0,0,0,0,0,0,121.58424197999543,38.974489820736004
46,234.9,26019.1,精,90.28,2009.0,2.0,1.0,第五郡五号地$,甘井子,第五郡$,板楼$,钢混,0.3333333333333333,1.0,3.0,70.0,平层,0,0,0,0,0,0,0,1,1,0,121.53638316844213,38.95821821395366
33,134.5,16432.5,简,81.85,2003.0,2.0,1.0,千山心城$,甘井子,山东路$,板楼$,钢混,0.5,1.0,2.0,70.0,平层,0,1,0,0,0,1,0,0,0,0,121.57869821060844,38.98266707097553
24,263.0,21988.1,精,119.61,2005.0,3.0,2.0,弘基三期$,高新园区,学府$,板楼$,钢混,1.0,2.0,2.0,70.0,平层,1,1,0,0,0,0,0,0,1,1,0,0
13,106.0,14207.2,简,74.61,2007.0,2.0,1.0,华东人家$,甘井子,华东$,板楼$,钢混,0.3333333333333333,1.0,3.0,70.0,平层,0,0,0,0,0,0,0,0,0,0,121.60097936186757,38.98817347531177
44,165.5,21069.4,简,78.55,2015.0,2.0,1.0,大华锦绣华城四期$,高新园区,庙岭$,板楼$,钢混,0.5,2.0,4.0,70.0,平层,0,0,1,0,0,0,0,0,0,1,121.54551329771321,38.893960076233796
43,33.0,4714.3,简,70.0,1985.0,2.0,1.0,桂林小区$,金州,古城汇金$,板楼$,砖混,0.5,1.0,2.0,70.0,平层,0,1,1,1,1,0,0,0,0,0,121.73539568092016,39.11052575932627
31,129.0,12647.1,精,102.0,2008.0,3.0,1.0,龙畔金泉五期K3区$,甘井子,泉水龙畔金泉$,板楼$,钢混,0.3333333333333333,1.0,3.0,70.0,平层,0,0,1,1,1,0,0,0,1,1,121.6308499855668,39.01477411209362
16,209.0,22000.0,精,95.0,2009.0,2.0,1.0,金寓花园四期$,甘井子,机场$,板楼$,钢,0.5,1.0,2.0,70.0,平层,0,1,1,0,1,0,0,0,0,1,121.55429881543137,38.95928719919636
37,81.0,9152.5,简,88.5,2010.0,2.0,2.0,金润小区B区$,金州,金润$,板楼$,钢混,0.5,1.0,2.0,70.0,平层,0,1,1,0,1,0,1,0,0,1,121.74665495055505,39.103153105120306
27,128.0,18740.8,精,68.3,2002.0,3.0,1.0,锦华北园$,沙河口,锦华$,板楼$,砖混,0.5,1.0,2.0,70.0,平层,0,1,1,0,1,0,1,0,1,1,121.54876674198212,38.9502799262837
23,94.0,13511.6,精,69.57,2008.0,1.0,1.0,美域盛景$,甘井子,泉水美域盛景$,板楼$,钢混,0.5,2.0,4.0,70.0,平层,0,0,1,0,1,1,0,0,0,0,121.61022278003976,39.006221362805846
10,29.0,7837.8,简,37.0,2009.0,1.0,1.0,新希望家园$,金州,城润$,塔楼$,钢混,0.13333333333333333,2.0,15.0,70.0,平层,0,1,1,1,1,1,0,1,1,0,121.75030429243509,39.06032095790547
28,289.0,14725.4,精,196.26,2000.0,3.0,2.0,丰源海景$,中山,景山$,板楼$,钢混,0.5,1.0,2.0,70.0,跃层,0,0,1,0,1,0,0,0,0,1,0,0
21,85.0,15567.8,精,54.6,1990.0,2.0,1.0,星海公园$,沙河口,孙家沟$,板楼$,砖混,0.3333333333333333,1.0,3.0,70.0,平层,0,1,1,0,1,1,0,0,1,1,121.5741110395726,38.88415578390394
47,126.8,16196.2,精,78.29,2007.0,2.0,1.0,西山阳光水岸$,甘井子,万科假日$,板楼$,钢混,0.3333333333333333,1.0,3.0,70.0,平层,0,1,1,0,1,0,0,0,1,0,121.52241194411668,38.93851028637249
19,136.0,16587.4,精,81.99,2010.0,2.0,1.0,大有恬园二期$,高新园区,凌水$,板楼$,钢混,0.25,1.0,4.0,70.0,平层,0,1,1,0,1,1,1,1,0,1,121.51810797287591,38.8861821024883
7,97.0,13412.6,简,72.32,2000.0,2.0,2.0,盛新园$,甘井子,万科假日$,板楼$,砖混,0.3333333333333333,1.0,3.0,70.0,平层,0,0,0,0,0,0,0,0,0,0,121.53087084962937,38.939844452613514
23,82.5,13853.9,精,59.55,1986.0,2.0,1.0,秀山路$,甘井子,山东路$,板楼$,砖混,0.16666666666666666,1.0,6.0,70.0,平层,0,1,1,0,0,0,0,0,0,1,121.59204483862128,38.979696882641115
44,118.0,13838.4,精,85.27,2013.0,2.0,1.0,华润海中国三期$,开发区,华润海中国$,板楼$,钢混,0.5,2.0,4.0,50.0,平层,0,0,0,0,0,0,0,0,0,0,121.76150942389182,39.04231605807281
10,219.0,22346.9,简,98.0,2015.0,2.0,1.0,浦项道$,高新园区,高新园区$,板楼$,钢混,1.0,2.0,2.0,70.0,平层,0,1,0,0,0,0,0,0,0,0,122.47535651753547,39.59389311520242
23,115.0,13358.1,简,86.09,2009.0,2.0,2.0,万国宫馆二期$,开发区,红梅翠竹$,板楼$,钢混,0.5,2.0,4.0,50.0,平层,0,0,1,1,1,1,1,0,1,0,121.75888535042932,39.04527736616778
40,98.0,11459.3,精,85.52,2007.0,2.0,1.0,泊林和山$,甘井子,叠翠$,塔楼$,钢混,0.3333333333333333,1.0,3.0,70.0,平层,0,1,1,0,1,1,0,0,1,1,121.54218711764717,38.92402111742112
15,65.0,8196.7,精,79.3,2010.0,2.0,2.0,小孤山中里$,开发区,海富$,板楼$,钢混,0.5,1.0,2.0,70.0,平层,0,0,0,0,0,0,0,0,0,0,121.81869586257241,39.02519907965567
79,48.0,14218.0,精,33.76,1990.0,2.0,1.0,杭州街$,沙河口,黑石礁$,板楼$,砖混,0.25,1.0,4.0,70.0,平层,0,1,0,0,0,0,0,0,0,0,121.56335684310899,38.888901300578574
16,128.0,14767.0,精,86.68,2015.0,3.0,2.0,万科朗润园$,甘井子,魅力之城$,板楼$,钢混,0.5,2.0,4.0,70.0,平层,0,0,0,0,0,0,0,0,0,0,121.51646427501309,38.99908746150524
36,259.0,19751.4,毛,131.13,2015.0,4.0,2.0,大华锦绣华城四期$,高新园区,庙岭$,板楼$,钢混,0.5,2.0,4.0,70.0,平层,0,1,0,0,1,0,0,0,0,1,121.54551329771321,38.893960076233796
19,85.8,12460.1,简,68.86,2003.0,2.0,1.0,泡崖美林园$,甘井子,美林园$,板楼$,钢混,0.3333333333333333,1.0,3.0,70.0,平层,0,1,1,0,1,1,0,1,0,1,121.52588921557629,38.97887829733051
93,142.0,23670.6,精,59.99,2013.0,1.0,1.0,大华锦绣华城二期$,高新园区,庙岭$,板楼$,钢混,0.5,2.0,4.0,70.0,平层,0,0,1,0,1,0,0,0,1,1,121.52711206359582,38.90394027043984
27,88.0,7977.5,精,110.31,2015.0,3.0,2.0,一方天鹅湖$,开发区,高城山$,未知$,钢混,0.3333333333333333,1.0,3.0,70.0,平层,0,0,0,1,1,0,0,1,0,1,121.83464055900154,39.154263934467735
30,32.0,5336.0,精,59.97,2011.0,2.0,1.0,山河枫景$,开发区,高城山$,板楼$,钢混,0.25,1.0,4.0,70.0,平层,0,0,0,0,0,0,0,0,0,0,121.8307353842038,39.08347300770261
15,66.0,10459.6,精,63.1,2010.0,2.0,1.0,左岸经典$,开发区,红梅翠竹$,塔楼$,钢混,0.15,6.0,40.0,50.0,平层,0,0,1,1,1,1,0,0,0,0,121.7613088888647,39.04871468544913
58,130.0,19103.6,精,68.05,2005.0,2.0,1.0,石葵秀景$,中山,武昌街$,板楼$,框架,0.5,1.0,2.0,70.0,平层,0,0,0,0,0,0,0,0,0,0,121.64534271846114,38.90465654435921
36,108.0,14857.6,精,72.69,1990.0,3.0,1.0,武昌街$,中山,武昌街$,板楼$,砖混,0.3333333333333333,1.0,3.0,70.0,平层,0,0,0,0,0,0,0,0,0,0,121.65285162457496,38.913665387803086
38,98.7,12986.8,简,76.0,2000.0,2.0,1.0,北昌平小区$,沙河口,西安路$,塔楼$,框架,0.25,2.0,8.0,70.0,平层,0,1,1,0,1,1,1,0,0,1,121.56487815942236,38.90285927867023
21,118.0,15514.1,精,76.06,2007.0,2.0,1.0,华东人家$,甘井子,华东$,板楼$,钢混,0.3333333333333333,1.0,3.0,70.0,平层,0,0,1,0,1,0,0,0,1,0,121.60097936186757,38.98817347531177
24,109.0,12925.4,精,84.33,2008.0,2.0,1.0,龙畔金泉五期K4区$,甘井子,泉水龙畔金泉$,板楼$,钢混,0.25,1.0,4.0,70.0,平层,0,1,1,1,1,0,0,0,0,0,121.62763557896044,39.00132439975652
8,165.0,9269.7,毛,178.0,,5.0,2.0,远洋假日养生庄园$,金州,金石滩$,未知$,未知,0.0,0.0,0.0,70.0,跃层,0,0,1,0,1,0,0,0,0,1,121.963590524636,39.10019887885058
12,113.0,18059.8,精,62.57,2004.0,2.0,1.0,椒金山庄$,甘井子,金三角$,板楼$,钢混,0.3333333333333333,1.0,3.0,70.0,平层,0,1,1,0,1,0,0,0,0,1,121.6160892674778,38.97766509380751
7,73.5,12015.7,精,61.17,2015.0,2.0,2.0,银帆国际$,开发区,红梅翠竹$,板楼$,钢混,0.14285714285714285,1.0,7.0,50.0,平层,0,1,1,0,0,0,0,0,1,1,121.74973575847106,39.051630804460416
109,249.0,20892.8,精,119.18,2012.0,3.0,2.0,第五郡一号地$,甘井子,第五郡$,板楼$,钢混,0.3333333333333333,1.0,3.0,70.0,平层,0,1,1,0,1,1,0,0,0,1,121.53638316844213,38.95821821395366
19,85.8,15546.3,精,55.19,1990.0,2.0,1.0,山东路$,甘井子,山东路$,板楼$,钢混,0.3333333333333333,1.0,3.0,70.0,平层,0,1,0,0,1,0,0,0,0,0,121.58424197999543,38.974489820736004
51,229.0,23136.0,精,98.98,2015.0,3.0,1.0,亿达云集$,中山,青云街$,板楼$,框架,0.5,2.0,4.0,70.0,平层,0,0,1,0,1,1,0,0,0,0,121.65287328811065,38.9021928345487
27,43.0,8862.3,精,48.52,2010.0,1.0,0.0,左岸经典$,开发区,红梅翠竹$,板楼$,钢混,0.2608695652173913,6.0,23.0,50.0,平层,0,0,1,1,1,1,0,0,0,1,121.7613088888647,39.04871468544913
9,29.0,6552.2,简,44.26,2010.0,1.0,1.0,环宇品阁$,开发区,倚山里$,塔楼$,钢混,0.1,2.0,20.0,40.0,跃层,0,1,1,1,0,0,0,0,1,1,121.8053119818301,39.0681425553406
16,100.0,13044.6,精,76.66,2003.0,2.0,1.0,泡崖美林园$,甘井子,美林园$,板楼$,钢混,0.3333333333333333,1.0,3.0,70.0,平层,0,1,1,0,1,1,0,1,0,0,121.52588921557629,38.97887829733051
24,152.0,16814.2,精,90.4,2008.0,2.0,2.0,万科假日风景$,甘井子,万科假日$,板楼$,钢混,0.5,1.0,2.0,70.0,平层,0,0,1,0,1,0,0,0,1,1,121.5256159914639,38.94069975196488
41,170.0,18985.9,毛,89.54,2009.0,2.0,2.0,鑫境界$,甘井子,机场$,板楼$,钢混,0.5,1.0,2.0,70.0,平层,0,1,0,0,0,0,0,0,0,0,121.55240105521096,38.960567232156144
36,93.8,12506.7,精,75.0,1989.0,3.0,1.0,兴华路$,甘井子,山东路$,板楼$,砖混,0.3333333333333333,1.0,3.0,70.0,平层,0,1,1,0,1,0,0,0,0,0,121.58697595305232,38.97826603042004
20,99.0,13985.0,简,70.79,1995.0,2.0,1.0,黑石礁广场$,沙河口,黑石礁$,塔楼$,砖混,0.3333333333333333,1.0,3.0,70.0,平层,0,1,0,0,0,0,0,0,0,0,121.56285405612523,38.878621171444216
11,75.0,13917.2,精,53.89,1986.0,2.0,1.0,山东路$,甘井子,山东路$,板楼$,砖混,0.3333333333333333,1.0,3.0,70.0,平层,0,1,1,0,1,1,0,0,0,1,121.58424197999543,38.974489820736004
49,153.0,14728.5,精,103.88,2003.0,3.0,2.0,和兴家园$,甘井子,促进路$,板楼$,钢混,0.5,1.0,2.0,70.0,平层,0,1,1,0,1,0,0,0,0,0,121.58193372020784,38.95353081879556
32,65.0,15666.4,简,41.49,2004.0,1.0,1.0,椒金山庄$,甘井子,金三角$,板楼$,钢混,0.3333333333333333,1.0,3.0,70.0,平层,0,1,1,0,1,0,0,0,0,1,121.6160892674778,38.97766509380751
6,133.0,17020.7,精,78.14,2014.0,2.0,2.0,钰桥中央庭院$,甘井子,泉水美域盛景$,板楼$,钢混,0.5,2.0,4.0,70.0,平层,0,0,0,0,0,0,0,0,1,0,121.61628327811201,38.999493225750584
51,292.0,29967.2,精,97.44,2011.0,3.0,2.0,华业玫瑰东方$,沙河口,和平广场$,板楼$,钢混,0.5,2.0,4.0,70.0,平层,0,1,1,0,0,1,0,0,1,1,121.59303680326035,38.90910852560183
46,68.0,16190.5,精,42.0,1988.0,2.0,1.0,祝胜街（昆明街）$,中山,南山$,板楼$,砖混,0.2,1.0,5.0,70.0,平层,0,1,1,0,0,0,0,0,0,1,121.6452416483116,38.91762508298064
9,269.0,17332.5,精,155.2,2001.0,3.0,1.0,34中保健街$,西岗,唐山街$,板楼$,钢,0.5,1.0,2.0,70.0,平层,0,1,1,0,1,0,0,0,0,1,121.63318912011476,38.91694191901814
24,335.0,35619.4,精,94.05,2008.0,2.0,2.0,幸福e家五期$,沙河口,幸福e家$,板楼$,钢混,0.6666666666666666,2.0,3.0,70.0,平层,0,1,1,0,1,1,0,0,1,1,121.58647177549163,38.909064839584246
22,98.0,14694.9,精,66.69,1993.0,2.0,1.0,北昌平小区$,沙河口,西安路$,板楼$,砖混,0.5,1.0,2.0,70.0,平层,0,1,1,0,1,1,0,0,0,0,121.5911292515099,38.920481531719446
13,82.0,9406.9,精,87.17,2006.0,3.0,1.0,东城天下$,开发区,东城$,板楼$,钢混,0.5,1.0,2.0,50.0,平层,0,0,1,0,1,1,0,0,0,0,121.84724109218661,39.07191843110481
25,137.0,12123.9,简,113.0,1997.0,2.0,2.0,星浦庄园$,沙河口,孙家沟$,板楼$,钢混,0.5,1.0,2.0,70.0,平层,0,0,0,0,0,0,0,0,0,0,121.5663493529832,38.88788411875187
21,78.0,13596.0,精,57.37,1989.0,2.0,1.0,工人村$,西岗,香炉礁$,板楼$,砖混,0.3333333333333333,1.0,3.0,70.0,平层,0,1,1,1,0,0,0,0,0,0,121.60271775191082,38.93943942746372
40,145.0,17824.2,简,81.35,1997.0,3.0,1.0,新春小区$,西岗,北京公园$,板楼$,砖混,0.5,1.0,2.0,70.0,平层,0,1,1,0,1,0,0,0,0,1,121.62225423488765,38.92272853717382
16,76.0,14027.3,精,54.18,1996.0,2.0,1.0,辽师$,沙河口,辽师$,板楼$,砖混,0.3333333333333333,1.0,3.0,70.0,平层,0,1,1,0,0,0,0,0,1,0,0,0
26,117.0,16027.4,精,73.0,2014.0,3.0,1.0,桑尼小镇$,甘井子,华南$,板塔结合$,钢混,0.3333333333333333,1.0,3.0,70.0,平层,0,0,0,0,0,0,0,0,0,0,121.57875238831207,38.99776812814271
32,107.0,14557.8,精,73.5,2017.0,2.0,2.0,我爱我家$,甘井子,叠翠$,板楼$,钢混,0.5,1.0,2.0,70.0,平层,0,0,0,0,0,0,0,0,0,0,0,0
101,66.0,10867.8,简,60.73,1989.0,2.0,1.0,香炉礁$,西岗,香炉礁$,板楼$,砖混,0.3333333333333333,1.0,3.0,70.0,平层,0,1,1,0,1,1,1,1,0,0,121.62212843708234,38.950923584890575
59,60.0,10485.8,精,57.22,2009.0,1.0,1.0,泉水N3区$,甘井子,泉水龙畔金泉$,板楼$,砖混,0.25,2.0,8.0,70.0,平层,0,1,0,1,1,0,1,0,0,0,121.64740800187946,39.022107461013675
4,80.0,12010.2,简,66.61,1991.0,2.0,1.0,浪花街$,沙河口,黑石礁$,板楼$,钢混,0.3333333333333333,1.0,3.0,70.0,平层,0,1,0,0,1,1,0,1,1,1,121.56119185137229,38.880960285999855
7,101.0,15502.7,精,65.15,2004.0,2.0,1.0,奥林园$,甘井子,泉水美域盛景$,板楼$,钢混,0.3333333333333333,1.0,3.0,70.0,暂无数据,0,1,0,0,0,1,0,1,0,0,121.60508603647258,39.006310012254744
19,143.0,20229.2,精,70.69,2012.0,1.0,1.0,中心裕景$,西岗,英华街$,塔楼$,钢混,0.42857142857142855,3.0,7.0,70.0,平层,0,1,1,0,1,0,0,0,1,1,121.63577120587942,38.92318192874371
29,155.0,27448.2,简,56.47,1990.0,2.0,1.0,34中纪念街$,西岗,唐山街$,板楼$,混合,0.3333333333333333,1.0,3.0,70.0,平层,0,1,1,0,0,1,0,0,0,1,121.62407890088697,38.90725002262485
15,360.0,26897.8,精,133.84,2013.0,3.0,2.0,中海紫御观邸一期$,高新园区,中海$,板楼$,钢混,0.5,1.0,2.0,70.0,平层,0,1,0,0,0,0,0,0,1,0,121.52783500459905,38.87082611585169
13,73.0,8784.6,简,83.1,2006.0,2.0,2.0,职高小区$,金州,光明$,板楼$,钢混,0.5,1.0,2.0,70.0,平层,0,0,0,0,0,0,0,0,0,0,121.71639192904297,39.10952899448941
149,178.0,19487.6,简,91.34,2015.0,3.0,2.0,中铁诺德滨海花园$,高新园区,七贤岭$,板楼$,钢混,0.5,2.0,4.0,70.0,平层,0,1,1,0,1,1,0,0,0,1,121.5131418229149,38.86371427439674
68,86.6,13081.6,精,66.2,2008.0,2.0,1.0,水映西山$,甘井子,万科假日$,塔楼$,钢混,0.3333333333333333,1.0,3.0,70.0,平层,0,0,1,0,1,0,0,0,1,1,102.67155712350362,25.043198760946844
98,29.5,4126.5,毛,71.49,,2.0,1.0,翠岫联芳$,旅顺口,旅顺口$,板楼$,钢混,16.0,16.0,1.0,70.0,平层,0,0,0,0,1,0,0,0,1,0,121.31629783161593,38.850180286276256
13,133.0,12116.2,简,109.77,2000.0,3.0,2.0,红旗东路$,甘井子,马栏$,板楼$,砖混,0.5,1.0,2.0,70.0,平层,0,1,0,0,0,0,0,0,0,0,121.55447998029678,38.92936160603863
150,210.0,25149.7,精,83.5,2011.0,2.0,1.0,东方圣克拉二期$,高新园区,庙岭$,板楼$,钢混,0.5,2.0,4.0,70.0,平层,0,0,1,0,0,0,0,0,1,1,121.53509518249345,38.902671091506555
20,116.0,11800.6,毛,98.3,1997.0,2.0,2.0,卧龙双厦$,西岗,青云街$,板楼$,钢混,0.25,2.0,8.0,70.0,平层,0,0,1,0,1,1,0,0,1,0,121.65817599002757,38.89428406963415
47,85.0,9066.7,毛,93.75,2009.0,2.0,2.0,泉水N1区$,甘井子,泉水龙畔金泉$,板楼$,钢混,0.5,3.0,6.0,70.0,平层,0,1,1,1,1,0,0,0,0,0,121.64195088573689,39.02260164012546
57,81.5,13581.1,精,60.01,2000.0,2.0,1.0,前程街$,甘井子,马栏$,板楼$,砖混,0.3333333333333333,1.0,3.0,70.0,平层,0,1,1,0,1,1,1,0,0,1,121.5546274793666,38.93222264581343
36,273.0,19008.5,简,143.62,2003.0,3.0,2.0,清华园(中山)$,中山,二七$,板楼$,框架,0.5,1.0,2.0,70.0,错层,0,1,1,0,1,1,0,0,1,0,121.67053859532035,38.930403700718124
104,131.0,15913.5,精,82.32,2011.0,2.0,2.0,中冶蓝城D区$,甘井子,生态新城$,板楼$,钢混,0.5,1.0,2.0,70.0,平层,0,0,1,0,1,1,1,0,0,0,121.49580403519921,38.98170313111056
69,48.0,6240.2,简,76.92,2001.0,2.0,1.0,芙蓉花园(开发区)$,开发区,东山$,板楼$,钢混,0.06666666666666668,1.0,15.0,50.0,平层,0,0,1,0,1,1,0,0,0,1,121.71284674209357,39.11170163300359
18,78.0,7098.0,毛,109.89,2015.0,2.0,2.0,世茂御龙海湾$,金州,金州其他$,未知$,钢混,0.0,0.0,0.0,70.0,跃层,0,0,1,0,1,0,1,0,1,1,121.64875099197283,39.18012336992442
10,115.0,13719.9,精,83.82,2007.0,2.0,1.0,祥和花园$,甘井子,南关岭$,板楼$,钢混,0.3333333333333333,1.0,3.0,70.0,平层,0,1,1,0,1,0,0,0,1,0,121.62114644093951,39.031298009495615
53,83.0,16236.3,简,51.12,2004.0,1.0,1.0,亲亲家园$,甘井子,西山水库$,板楼$,钢混,0.3333333333333333,1.0,3.0,70.0,平层,0,1,1,0,0,0,0,0,1,0,121.54987077203016,38.92858041390463
4,80.0,10579.2,精,75.62,1995.0,2.0,1.0,宏孚小区$,甘井子,华东$,板楼$,砖混,0.5,1.0,2.0,70.0,平层,0,0,0,0,0,0,0,0,0,0,121.60214059062066,38.987950352899944
131,61.2,13021.3,精,47.0,2012.0,1.0,0.0,泛华领城$,中山,三八北$,板楼$,钢混,0.25,6.0,24.0,70.0,平层,0,1,1,0,1,0,0,0,0,1,121.66197298638428,38.92662483918485
63,93.0,11034.6,精,84.28,2009.0,2.0,1.0,泉水N3区$,甘井子,泉水龙畔金泉$,板楼$,砖混,0.5,2.0,4.0,70.0,平层,0,1,1,1,1,1,0,0,0,0,121.64740800187946,39.022107461013675
76,62.5,12131.2,精,51.52,1990.0,2.0,1.0,由家村$,高新园区,软件园$,板楼$,钢混,0.2,1.0,5.0,70.0,平层,0,1,0,0,0,0,0,0,0,0,121.54842093298792,38.893939506288305
71,87.0,13809.5,精,63.0,2005.0,2.0,1.0,锦泉源D2区$,甘井子,泉水锦泉源$,板楼$,钢混,0.5,2.0,4.0,70.0,平层,0,1,0,1,1,1,0,0,1,1,121.61768702509855,39.01348308242818
50,79.0,15064.8,精,52.44,2011.0,2.0,1.0,润德广场$,西岗,北京公园$,塔楼$,钢混,0.25,6.0,24.0,70.0,平层,0,1,1,0,0,0,0,0,1,1,121.62313670237317,38.92225115261126
224,125.0,14450.9,简,86.5,2006.0,2.0,1.0,阳光月秀$,沙河口,阳光月秀$,板楼$,钢混,0.5,2.0,4.0,70.0,平层,0,0,1,0,1,1,1,0,1,1,121.5760348228053,38.934825492099485
23,97.0,11878.5,毛,81.66,1996.0,2.0,2.0,桃花源小区$,西岗,八一路$,板楼$,砖混,0.3333333333333333,1.0,3.0,70.0,平层,0,0,1,0,1,1,0,0,1,1,121.64733675547286,38.894641227069435
12,56.8,7657.1,精,74.18,2001.0,2.0,1.0,怡海花园一期$,开发区,高城山$,板楼$,混合,0.5,1.0,2.0,50.0,平层,0,0,1,1,0,0,0,1,1,0,121.8303779223905,39.0711299828303
85,129.0,9121.1,简,141.43,2005.0,3.0,2.0,众益阳光海岸$,开发区,海富$,板楼$,钢混,0.6666666666666666,2.0,3.0,50.0,平层,0,0,1,0,1,0,0,0,0,1,121.80492450852803,39.03478010125289
12,84.0,9256.2,简,90.75,2015.0,3.0,2.0,乾豪新界$,开发区,金湾新城$,板楼$,钢混,0.3333333333333333,1.0,3.0,70.0,暂无数据,0,0,0,0,0,0,0,0,0,0,121.86302650557424,39.06124888606264
171,262.0,16313.8,毛,160.6,2014.0,3.0,2.0,亿达普罗旺斯二期$,高新园区,普罗旺斯$,板楼$,钢混,2.5,5.0,2.0,70.0,平层,0,1,1,0,0,0,0,0,1,1,121.49345999680148,38.858402104460424
111,189.0,20696.5,精,91.32,2011.0,2.0,1.0,城市印象$,甘井子,第五郡$,板楼$,钢混,0.5,1.0,2.0,70.0,平层,0,1,1,0,1,1,0,0,0,1,121.55140628785873,38.9629062909715
40,64.0,11985.0,简,53.4,2006.0,2.0,1.0,新星绿城三期$,甘井子,机场乐购$,板楼$,钢混,0.3333333333333333,1.0,3.0,70.0,平层,0,0,0,0,0,0,0,0,1,0,121.51673677778615,38.96564202280645
21,96.5,11913.6,精,81.0,2007.0,2.0,1.0,泡崖康顺园$,甘井子,泡崖八区$,板楼$,钢混,0.3333333333333333,1.0,3.0,70.0,平层,0,0,0,0,0,0,0,0,0,0,121.55200813638092,38.98966538275035
85,122.0,14081.3,精,86.64,1990.0,3.0,1.0,孙家沟$,沙河口,孙家沟$,板楼$,砖混,0.3333333333333333,1.0,3.0,70.0,平层,0,0,1,0,0,0,0,0,0,1,121.56694381294255,38.892695118719985
9,125.0,13435.1,精,93.04,2012.0,3.0,2.0,万科溪之谷$,甘井子,溪之谷$,板楼$,钢混,0.25,1.0,4.0,70.0,平层,0,0,1,0,1,1,1,1,0,0,121.48045379064472,38.91483322778244
26,45.0,7352.9,毛,61.2,2010.0,2.0,1.0,小孤山中里$,开发区,海富$,板楼$,钢混,0.3333333333333333,1.0,3.0,70.0,平层,0,0,1,1,0,0,0,0,1,1,121.81869586257241,39.02519907965567
12,57.8,10897.4,精,53.04,2004.0,1.0,0.0,君悦豪庭$,开发区,红梅翠竹$,板楼$,钢混,0.25,4.0,16.0,50.0,平层,0,1,1,1,0,1,0,1,0,1,121.77470148586538,39.05432398384216
30,153.0,13846.2,精,110.5,2001.0,3.0,2.0,金海花园西园$,西岗,香炉礁$,板楼$,砖混,0.5,1.0,2.0,70.0,平层,0,0,1,1,1,0,0,0,0,1,121.60738150349138,38.94140879395716
23,80.0,14601.2,精,54.79,2010.0,1.0,1.0,艾维尼小城$,甘井子,生态新城$,板楼$,钢混,0.25,1.0,4.0,70.0,平层,0,0,1,0,1,1,0,0,1,1,121.49830930416482,38.97876267755482
156,103.0,14803.1,简,69.58,2006.0,2.0,2.0,锦城园C区$,沙河口,锦华$,板楼$,钢混,0.5,1.0,2.0,70.0,平层,0,1,0,0,1,0,0,0,0,1,121.55444937143483,38.952351750646535
67,118.0,15809.2,简,74.64,2002.0,3.0,1.0,锦华北园$,沙河口,锦华$,板楼$,砖混,0.5,1.0,2.0,70.0,平层,0,1,1,0,1,1,0,0,0,1,121.54876674198212,38.9502799262837
31,218.0,18319.3,精,119.0,2003.0,3.0,1.0,丽景春天$,沙河口,丽景$,板楼$,钢混,0.5,1.0,2.0,70.0,平层,0,1,0,0,0,0,0,0,0,0,121.60436084611234,38.929165827981926
31,299.0,13977.2,简,213.92,2002.0,4.0,2.0,海昌欣城$,中山,华乐$,塔楼$,钢混,1.0,2.0,2.0,70.0,平层,0,1,1,0,1,0,0,0,0,1,121.69241999433939,38.91885541223645
50,82.0,9761.9,精,84.0,2008.0,2.0,1.0,城润万家$,开发区,城润$,板楼$,钢混,0.6666666666666666,2.0,3.0,50.0,平层,0,0,0,1,1,0,0,0,1,0,121.75486958883346,39.060070069002506
20,76.8,13105.8,精,58.6,1992.0,2.0,1.0,侯二小区$,沙河口,侯家沟$,板楼$,砖混,0.25,1.0,4.0,70.0,平层,0,1,0,0,0,0,0,0,0,0,121.59007102695813,38.933812737033655
7,37.0,6575.4,简,56.27,1998.0,2.0,1.0,岗盛里小区$,开发区,东山$,板楼$,砖混,0.3333333333333333,1.0,3.0,70.0,平层,0,0,0,0,1,1,1,0,1,1,121.80501357102783,39.04299222448448
15,114.5,15153.5,精,75.56,2012.0,2.0,2.0,万科魅力之城$,甘井子,魅力之城$,板楼$,钢混,0.5,2.0,4.0,70.0,平层,0,1,0,0,1,0,0,0,1,1,121.52256275973045,38.996118699254794
30,148.0,12982.5,精,114.0,2016.0,3.0,2.0,华润海中国六期$,开发区,华润海中国$,板楼$,钢混,0.3333333333333333,1.0,3.0,50.0,平层,0,0,1,0,1,1,0,0,1,1,121.76805600136368,39.04110807394385
24,120.0,12371.1,精,97.0,2011.0,2.0,1.0,安邦阳光润城$,甘井子,叠翠$,板楼$,钢混,0.3333333333333333,1.0,3.0,70.0,平层,0,0,1,0,1,1,0,0,1,0,121.53618657338296,38.913337636989475
46,71.0,8709.5,精,81.52,2003.0,2.0,1.0,湾里南小区$,开发区,金湾新城$,板楼$,钢混,0.25,1.0,4.0,70.0,平层,0,0,1,0,1,0,0,0,1,1,121.85916984376554,39.06967041099975
9,64.0,5948.0,简,107.6,1998.0,2.0,2.0,高安里$,开发区,高城山$,板楼$,钢混,0.5,1.0,2.0,50.0,平层,0,0,1,0,1,1,0,0,1,0,121.82617377175632,39.07659248202052
21,106.0,11316.3,精,93.67,2006.0,2.0,1.0,宏城金棕榈$,开发区,红梅翠竹$,板塔结合$,钢混,0.4,2.0,5.0,50.0,平层,0,0,1,0,0,0,0,0,1,0,121.76820889924961,39.054012664954506
5,110.0,9980.0,精,110.22,2005.0,3.0,2.0,东城天下$,开发区,东城$,板楼$,钢混,0.5,1.0,2.0,50.0,平层,0,0,1,0,1,1,0,0,0,0,121.84724109218661,39.07191843110481
38,215.0,19616.8,精,109.6,2016.0,3.0,1.0,远洋荣域A4区$,甘井子,华南$,板楼$,钢混,0.5,2.0,4.0,70.0,平层,0,1,0,0,1,1,0,0,0,1,121.62409823152325,38.95811978881024
32,185.0,21044.2,简,87.91,2009.0,2.0,2.0,易和紫园$,甘井子,锦华$,板楼$,钢混,0.5,1.0,2.0,70.0,平层,0,1,0,0,1,0,0,0,0,1,121.55422042839425,38.95565838250373
28,61.0,7721.5,简,79.0,2000.0,3.0,1.0,金海里$,开发区,倚山里$,板楼$,钢混,0.3333333333333333,1.0,3.0,0.0,平层,0,0,0,0,0,0,0,0,0,0,121.79975648596299,39.052298860095554
29,54.5,14104.6,精,38.64,1900.0,2.0,1.0,山东路$,甘井子,山东路$,板楼$,砖混,0.16666666666666666,1.0,6.0,70.0,平层,0,1,1,0,1,1,0,0,0,0,121.58424197999543,38.974489820736004
125,76.0,21814.0,精,34.84,2005.0,2.0,1.0,新华同仁轩$,沙河口,阳光月秀$,板楼$,钢混,0.07407407407407407,2.0,27.0,70.0,跃层,0,0,1,0,1,1,1,0,0,1,121.58013408189832,38.933807941196015
43,101.0,22042.8,精,45.82,2011.0,1.0,1.0,华业玫瑰东方$,沙河口,和平广场$,塔楼$,钢混,0.2,3.0,15.0,70.0,平层,0,1,1,0,0,1,0,0,1,1,121.59303680326035,38.90910852560183
5,137.0,15101.4,精,90.72,2009.0,2.0,1.0,新星帕尔美娜$,甘井子,机场乐购$,板楼$,钢混,0.5,1.0,2.0,70.0,平层,0,0,1,0,1,1,0,0,1,1,121.52034550457915,38.96129897086545
34,57.0,11618.4,精,49.06,1995.0,2.0,1.0,马栏小学北$,沙河口,马栏$,板楼$,砖混,0.3333333333333333,1.0,3.0,70.0,平层,0,1,1,0,1,0,0,0,0,1,121.56320121617092,38.93162774504978
27,95.0,13380.3,精,71.0,2014.0,1.0,0.0,新世界名泷$,中山,三八北$,塔楼$,钢混,0.13636363636363635,3.0,22.0,0.0,平层,0,0,1,0,1,0,0,0,1,1,121.64538358058218,38.9280763619181
13,119.8,14549.4,简,82.34,2000.0,2.0,2.0,虹桥干休所$,甘井子,机场$,板楼$,钢混,0.5,1.0,2.0,70.0,平层,0,1,0,0,0,0,0,0,1,0,0,0
5,108.0,11993.3,简,90.05,1996.0,2.0,1.0,桃仙小区$,中山,秀月$,板楼$,砖混,0.3333333333333333,1.0,3.0,70.0,平层,0,0,1,0,1,1,0,0,1,0,121.66350725985633,38.883978438306926
46,59.5,6739.9,简,88.28,1998.0,2.0,1.0,翠南隆达院$,开发区,红梅翠竹$,板楼$,钢混,0.5,1.0,2.0,50.0,平层,0,0,0,0,0,0,0,0,1,0,0,0
16,183.0,20631.3,精,88.7,2011.0,2.0,1.0,城市印象$,甘井子,第五郡$,板楼$,钢混,0.5,1.0,2.0,70.0,平层,0,1,1,0,1,0,0,0,0,0,121.55140628785873,38.9629062909715
12,49.5,8277.6,简,59.8,1992.0,2.0,1.0,新林巷$,西岗,新起屯$,板楼$,砖混,0.2,1.0,5.0,70.0,平层,0,0,0,0,0,0,0,0,0,0,121.64038616958942,38.89402783176648
14,90.0,13882.5,精,64.83,2005.0,2.0,1.0,龙畔金泉三期$,甘井子,泉水龙畔金泉$,板楼$,钢混,0.3333333333333333,1.0,3.0,70.0,平层,0,1,1,1,1,0,0,0,1,0,121.62412917275823,39.00450244573206
30,47.0,11469.0,简,40.98,1996.0,1.0,1.0,北甸街$,沙河口,辽师$,板楼$,钢混,0.2,1.0,5.0,70.0,平层,0,1,1,0,1,1,0,0,0,1,121.57596520951812,38.92464508422796
33,81.8,13469.5,简,60.73,1994.0,2.0,1.0,千山路$,甘井子,山东路$,板楼$,砖混,0.3333333333333333,1.0,3.0,70.0,平层,0,1,1,0,1,1,0,0,1,1,121.58814421643585,38.98528697769128
41,83.5,11636.0,精,71.76,2002.0,2.0,1.0,泡崖四区$,甘井子,泡崖四区$,板楼$,砖混,0.3333333333333333,1.0,3.0,70.0,平层,0,1,1,0,1,0,0,1,1,0,121.551523014575,38.97730224450665
96,168.0,18526.7,精,90.68,2009.0,2.0,2.0,金寓花园二期$,甘井子,机场$,板楼$,钢混,0.5,1.0,2.0,70.0,平层,0,1,0,0,0,0,0,0,0,0,121.55140264073836,38.95871284419659
9,68.0,9066.7,精,75.0,2008.0,3.0,1.0,金润小区A区$,金州,金润$,板楼$,钢混,0.3333333333333333,1.0,3.0,70.0,平层,0,1,0,0,0,0,0,0,0,0,121.74955521613134,39.10292157156721
31,129.0,14609.3,简,88.3,2004.0,2.0,1.0,千山心城$,甘井子,山东路$,板楼$,钢混,0.5,1.0,2.0,70.0,平层,0,0,0,0,1,1,0,0,1,0,121.57869821060844,38.98266707097553
138,108.0,20078.1,精,53.79,2009.0,2.0,1.0,龙畔锦城$,西岗,北京公园$,板楼$,钢混,0.3333333333333333,1.0,3.0,70.0,平层,0,0,1,0,1,0,0,0,0,1,121.61498923399098,38.92763470697088
25,119.0,18218.0,精,65.32,2006.0,2.0,2.0,锦城西园$,甘井子,锦华$,板楼$,钢混,0.5,1.0,2.0,70.0,平层,0,1,1,0,1,0,0,0,1,1,121.54997629058857,38.95349849638225
28,117.0,13015.9,精,89.89,2002.0,2.0,2.0,锦泉源B5区$,甘井子,泉水锦泉源$,板楼$,钢混,0.3333333333333333,1.0,3.0,70.0,平层,0,1,1,0,1,1,0,0,1,1,121.61036004112168,39.0148116771198
22,279.0,16539.2,简,168.69,2005.0,3.0,2.0,金玉星海$,沙河口,星海广场$,板楼$,钢混,1.0,2.0,2.0,70.0,平层,0,1,1,0,1,1,0,0,0,1,121.58901893783298,38.89025493971267
48,77.0,13155.6,简,58.53,1996.0,2.0,1.0,锦泉南园$,沙河口,锦绣$,板楼$,砖混,0.3333333333333333,1.0,3.0,70.0,平层,0,0,0,0,0,0,0,0,0,0,121.56319400277768,38.944801560776106
37,41.0,10956.7,简,37.42,1980.0,2.0,1.0,工人村$,西岗,香炉礁$,板塔结合$,砖混,0.1,1.0,10.0,70.0,平层,0,1,1,1,1,0,0,0,1,1,121.60271775191082,38.93943942746372
41,145.0,16501.7,精,87.87,2005.0,2.0,2.0,大有恬园$,高新园区,凌水$,板楼$,钢混,0.5,1.0,2.0,70.0,平层,0,0,0,0,1,1,1,0,0,1,121.51881707188954,38.88608354024224
22,88.0,9477.7,精,92.85,2002.0,2.0,1.0,青松北里$,开发区,红梅翠竹$,板楼$,钢混,0.16666666666666666,1.0,6.0,50.0,平层,0,0,1,1,0,0,0,0,1,0,121.7647673300442,39.04903091553647
18,129.0,18189.5,精,70.92,2017.0,2.0,1.0,华润考拉住区$,甘井子,名贵$,板楼$,钢混,0.6666666666666666,2.0,3.0,70.0,平层,0,1,1,0,1,1,0,0,1,1,121.57739496873731,38.99213107663791
26,69.0,16159.3,精,42.7,1990.0,2.0,0.0,76中学桥南$,甘井子,山东路$,板楼$,钢混,0.125,1.0,8.0,70.0,平层,0,1,1,0,1,1,0,0,1,1,121.60264031797585,39.01739976086333
18,1450.0,40277.8,精,360.0,2014.0,5.0,2.0,星海湾壹号$,沙河口,星海广场$,板塔结合$,钢混,1.0,2.0,2.0,70.0,平层,1,1,0,0,0,0,1,0,0,1,121.58891010003569,38.884898606545995
19,76.3,12607.4,精,60.52,1998.0,2.0,1.0,锦霞南园$,沙河口,锦华$,板楼$,砖混,0.3333333333333333,1.0,3.0,70.0,平层,0,0,1,0,1,0,0,0,0,0,121.62163148459285,38.9189536667856
17,157.8,22225.4,精,71.0,2007.0,2.0,1.0,前城国际二期$,西岗,英华街$,板楼$,钢混,0.25,2.0,8.0,70.0,平层,0,1,0,0,1,0,0,0,1,1,0,0
10,318.0,22177.3,精,143.39,2015.0,3.0,2.0,浦项道$,高新园区,高新园区$,板楼$,钢混,1.0,2.0,2.0,70.0,平层,0,1,0,0,1,1,0,0,1,0,121.53459780780038,38.86772058158217
26,141.0,17180.5,精,82.07,2003.0,2.0,1.0,香茗苑$,沙河口,侯家沟$,板楼$,钢混,0.5,1.0,2.0,70.0,复式,0,1,1,0,1,1,0,0,0,1,121.59525151530872,38.93356498220526
61,138.0,13628.3,简,101.26,1990.0,2.0,2.0,星海公园$,沙河口,孙家沟$,板楼$,砖混,0.3333333333333333,1.0,3.0,70.0,平层,0,1,0,0,0,0,0,0,0,0,121.5741110395726,38.88415578390394
18,65.0,9313.7,简,69.79,2004.0,2.0,1.0,湾里南小区$,开发区,金湾新城$,板楼$,钢混,0.3333333333333333,1.0,3.0,70.0,平层,0,0,1,1,1,1,0,0,0,0,121.85916984376554,39.06967041099975
9,258.0,27235.3,精,94.73,2015.0,3.0,1.0,万科蓝山$,甘井子,促进路$,板楼$,钢混,0.5,1.0,2.0,70.0,平层,0,1,0,0,0,0,0,0,0,0,121.57945110291399,38.95992402559205
89,288.0,29832.2,精,96.54,2016.0,2.0,2.0,星海绿山城$,西岗,唐山街$,板楼$,框架,0.6666666666666666,2.0,3.0,70.0,平层,0,0,1,0,1,1,0,0,0,0,121.6364381051951,38.913985980365396
42,142.0,14267.1,精,99.53,1999.0,3.0,2.0,香海花园$,西岗,香炉礁$,板楼$,砖混,0.5,1.0,2.0,70.0,跃层,0,1,1,0,1,0,0,0,0,0,121.59572731270343,38.93960118935623
28,53.0,8952.7,精,59.2,,2.0,1.0,和平小区$,金州,光明$,未知$,未知,0.6666666666666666,2.0,3.0,70.0,平层,0,0,1,0,1,1,0,0,0,1,121.72000927417905,39.110774537380216
10,109.0,13869.4,简,78.59,1992.0,3.0,1.0,王家桥$,甘井子,促进路$,板楼$,砖混,0.3333333333333333,1.0,3.0,70.0,平层,0,1,0,0,0,0,0,0,0,0,121.6412824179798,39.23264430718813
44,115.0,13310.2,简,86.4,1997.0,2.0,1.0,西苑小区$,沙河口,马栏$,板楼$,砖混,0.25,1.0,4.0,70.0,平层,0,1,0,0,1,0,0,0,0,1,0,0
5,99.0,11960.9,精,82.77,2009.0,2.0,2.0,泉水N2区$,甘井子,泉水龙畔金泉$,板楼$,钢混,0.3333333333333333,2.0,6.0,70.0,平层,0,1,0,1,1,1,0,0,1,0,121.64342707118143,39.02056204263021
14,155.0,11063.5,精,140.1,2009.0,3.0,2.0,万国宫馆二期$,开发区,红梅翠竹$,板楼$,钢混,0.5,2.0,4.0,50.0,平层,0,0,0,0,1,1,0,0,0,0,121.75888535042932,39.04527736616778
9,93.0,12193.5,简,76.27,1999.0,2.0,1.0,华南花园$,甘井子,名贵$,板楼$,钢混,0.3333333333333333,1.0,3.0,70.0,平层,0,1,0,0,0,0,0,0,0,0,121.59342471583379,38.99336704409628
36,132.0,15196.9,精,86.86,2004.0,2.0,2.0,千山心城$,甘井子,山东路$,板楼$,钢混,0.5,1.0,2.0,70.0,平层,0,1,0,0,1,1,0,0,1,0,121.57869821060844,38.98266707097553
53,215.0,26219.5,毛,82.0,2016.0,2.0,2.0,中国铁建国滨苑$,中山,华乐$,板楼$,钢混,1.0,2.0,2.0,70.0,平层,0,1,0,0,1,0,0,0,1,1,121.70879043458022,38.920456779743716
23,110.0,13095.2,精,84.0,1992.0,2.0,1.0,侯二小区$,沙河口,侯家沟$,板楼$,砖混,0.5,1.0,2.0,70.0,平层,0,1,0,0,0,0,0,0,0,0,121.59007102695813,38.933812737033655
40,96.8,11145.7,精,86.85,1998.0,2.0,2.0,桃山小区$,沙河口,南沙$,板楼$,钢混,0.3333333333333333,1.0,3.0,70.0,平层,0,0,1,0,1,0,0,0,1,1,121.57185447367391,38.90203187667108
14,43.0,13445.9,精,31.98,1989.0,1.0,1.0,车家村$,沙河口,侯家沟$,板楼$,砖混,0.14285714285714285,1.0,7.0,70.0,平层,0,1,0,0,0,0,0,0,0,0,121.5902693036452,38.93975416108699
27,95.5,11853.0,精,80.57,2007.0,2.0,1.0,锦泉源D3区$,甘井子,泉水锦泉源$,板楼$,钢混,0.3333333333333333,2.0,6.0,70.0,平层,0,0,0,1,1,1,0,0,0,1,121.61768702509855,39.01348308242818
70,89.5,15037.0,毛,59.52,2000.0,2.0,1.0,理工园$,高新园区,庙岭$,板楼$,砖混,0.3333333333333333,1.0,3.0,70.0,平层,0,0,1,0,1,1,0,1,1,1,121.5329251979747,38.89194873153084
14,75.0,10135.1,精,74.0,2011.0,2.0,1.0,岭湾峰尚一期$,开发区,杏花里$,板楼$,钢混,0.5,2.0,4.0,50.0,平层,0,0,0,0,0,0,0,0,0,0,121.80249901088834,39.07696409586286
22,35.0,10382.7,简,33.71,2000.0,1.0,1.0,学府林居$,中山,武昌街$,板塔结合$,砖混,0.038461538461538464,1.0,26.0,70.0,复式,0,0,0,0,0,0,0,0,0,0,121.6541181634796,38.9148985285611
48,107.0,12792.9,精,83.64,2017.0,2.0,1.0,依云溪谷$,甘井子,溪之谷$,板楼$,钢混,0.5,1.0,2.0,70.0,平层,0,0,1,0,1,1,0,0,1,1,121.48418043800203,38.92113328132571
8,80.0,15952.1,精,50.15,2013.0,1.0,1.0,枫丹丽城$,甘井子,泉水美域盛景$,板楼$,钢混,0.5,2.0,4.0,70.0,平层,0,0,0,1,1,0,0,0,0,1,121.62052248511873,39.01016428270067
11,186.0,19982.8,精,93.08,2014.0,2.0,2.0,香周首府$,西岗,香炉礁$,板楼$,钢混,4.0,8.0,2.0,70.0,平层,0,0,0,0,0,0,0,0,0,0,121.60064796618528,38.943134126193925
6,81.0,11020.4,精,73.5,2012.0,2.0,2.0,知润山$,开发区,高城山$,板楼$,钢混,0.3333333333333333,1.0,3.0,50.0,平层,0,0,0,0,0,0,0,0,0,0,121.82034901330414,39.08552043901178
35,81.0,11589.6,简,69.89,2007.0,2.0,1.0,泡崖康顺园$,甘井子,泡崖八区$,板楼$,钢混,0.6666666666666666,2.0,3.0,70.0,平层,0,1,1,0,1,0,0,1,0,1,121.55200813638092,38.98966538275035
11,123.0,19561.1,简,62.88,1998.0,2.0,1.0,21中天兴花园一期$,沙河口,中山公园$,板楼$,钢混,0.3,3.0,10.0,70.0,平层,0,1,0,0,0,0,0,0,0,0,121.60617164676614,38.915194673295254
35,76.0,13901.6,简,54.67,1995.0,2.0,1.0,台山$,沙河口,南沙$,板楼$,砖混,0.3333333333333333,1.0,3.0,70.0,平层,0,1,1,0,1,0,0,0,0,1,112.80044482505359,22.257923470251228
58,97.0,14074.3,精,68.92,2000.0,2.0,1.0,前程街$,甘井子,马栏$,板楼$,砖混,0.3333333333333333,1.0,3.0,70.0,平层,0,1,0,0,0,0,0,0,0,0,121.5546274793666,38.93222264581343
9,78.0,13928.6,简,56.0,1989.0,2.0,1.0,千山路$,甘井子,山东路$,板楼$,砖混,0.3333333333333333,1.0,3.0,70.0,平层,0,1,1,0,1,0,0,0,1,0,121.58814421643585,38.98528697769128
12,74.8,24891.8,简,30.05,1965.0,1.0,0.0,金四街$,甘井子,金三角$,板楼$,砖混,0.05,1.0,20.0,70.0,平层,0,1,1,1,1,1,0,0,0,0,121.60344726581546,38.974529429148866
69,70.0,9825.9,简,71.24,2009.0,2.0,1.0,新希望家园$,金州,城润$,板楼$,钢混,0.6666666666666666,2.0,3.0,70.0,平层,0,0,1,0,0,0,0,0,1,0,121.75030429243509,39.06032095790547
6,116.8,14507.5,精,80.51,2010.0,2.0,1.0,和合美家$,甘井子,泡崖八区$,板楼$,钢混,0.5,1.0,2.0,70.0,平层,0,1,0,0,0,1,0,1,0,1,121.54986902572423,38.98768238597263
11,69.0,6400.7,精,107.8,1998.0,3.0,2.0,岗盛里小区$,开发区,东山$,板楼$,砖混,0.3333333333333333,1.0,3.0,50.0,平层,0,0,1,0,1,0,0,0,0,0,121.80501357102783,39.04299222448448
107,82.0,21354.2,简,38.4,2005.0,2.0,1.0,新华同仁轩$,沙河口,阳光月秀$,板楼$,钢混,0.08695652173913042,2.0,23.0,70.0,跃层,0,0,1,0,1,1,1,0,0,1,121.5802468012737,38.93398049368696
51,115.0,10177.0,精,113.0,2000.0,3.0,2.0,泡崖七区$,甘井子,泡崖市场$,板楼$,钢混,0.5,1.0,2.0,70.0,平层,0,0,1,0,1,0,0,0,1,1,121.56608835660542,38.9835870809834
106,53.0,11717.9,精,45.23,1995.0,1.0,1.0,交通大学$,沙河口,辽师$,板楼$,钢混,0.25,1.0,4.0,70.0,平层,0,1,0,0,1,0,0,1,1,0,121.58092245816982,38.91733022296403
41,535.0,24369.1,精,219.54,2015.0,4.0,2.0,中庚当代艺术$,中山,华乐$,板楼$,钢混,1.0,2.0,2.0,70.0,平层,1,1,0,0,0,0,0,0,0,0,121.69996089180735,38.9271405089901
53,77.0,8920.3,毛,86.32,2016.0,2.0,2.0,一河两公园$,开发区,高城山$,板楼$,钢混,0.5,2.0,4.0,70.0,平层,0,0,1,0,0,0,0,0,1,1,0,0
39,135.0,15435.6,简,87.46,2015.0,3.0,1.0,亿锋广场二期$,开发区,红梅翠竹$,板楼$,钢混,0.4,2.0,5.0,50.0,平层,0,1,1,1,1,1,1,0,0,1,121.75642118163574,39.05248124255919
10,105.0,16074.7,精,65.32,2005.0,2.0,1.0,奥林园$,甘井子,泉水美域盛景$,板楼$,钢混,0.5,1.0,2.0,70.0,平层,0,0,0,0,0,0,0,0,0,0,121.60508603647258,39.006310012254744
3,41.0,6119.4,简,67.0,1997.0,2.0,1.0,古城甲区$,金州,古城汇金$,板楼$,钢混,0.3333333333333333,1.0,3.0,70.0,平层,0,1,1,0,1,0,0,0,0,0,121.72508981975352,39.11499770792852
18,158.0,17596.6,精,89.79,2010.0,2.0,1.0,锦绣暖山$,甘井子,叠翠$,板楼$,钢混,0.3333333333333333,1.0,3.0,70.0,平层,0,1,1,0,1,1,1,0,1,0,121.54948981144305,38.92492360733452
25,128.8,13312.7,精,96.75,2003.0,2.0,2.0,盛世闲庭$,甘井子,山东路$,板楼$,钢混,0.5,1.0,2.0,70.0,平层,0,1,1,0,1,0,0,0,1,1,121.5793230916839,38.9794939884365
28,155.0,12601.6,精,123.0,1997.0,3.0,1.0,长春街$,西岗,八一路$,板楼$,钢混,0.5,1.0,2.0,70.0,平层,0,0,0,0,1,1,0,0,0,0,121.65303868861267,38.89343572019153
66,235.0,15949.5,精,147.34,2001.0,3.0,2.0,东北名苑$,甘井子,大纺$,板楼$,钢混,0.5,1.0,2.0,70.0,平层,0,1,1,0,0,0,0,0,1,0,121.59425921111018,38.96153351569862
12,42.0,9670.7,精,43.43,2010.0,2.0,1.0,万德悦城$,开发区,高城山$,塔楼$,钢混,0.17647058823529413,6.0,34.0,50.0,跃层,0,1,1,1,1,1,0,0,1,0,121.81735024673205,39.06968200551344
25,180.0,27018.9,精,66.62,1998.0,2.0,1.0,79中金光小区$,沙河口,中山公园$,塔楼$,砖混,0.3333333333333333,1.0,3.0,70.0,平层,0,1,1,0,1,0,0,0,0,1,121.6012472608249,38.91886726033418
29,98.0,16896.6,精,58.0,1994.0,2.0,1.0,秀月小区$,中山,秀月$,板楼$,砖混,0.3333333333333333,1.0,3.0,70.0,平层,0,0,0,0,0,0,0,0,0,0,121.6649996875628,38.89043584977458
39,87.0,14529.1,简,59.88,1990.0,3.0,1.0,大医物业$,沙河口,孙家沟$,板楼$,砖混,0.3333333333333333,1.0,3.0,70.0,平层,0,1,0,0,0,0,0,0,0,0,0,0
22,93.0,12949.0,简,71.82,2004.0,2.0,1.0,华兴山庄$,高新园区,凌水$,板楼$,钢混,0.3333333333333333,1.0,3.0,70.0,平层,0,0,1,0,1,1,0,0,0,1,121.51276175075195,38.88566533950871
5,55.0,8527.1,简,64.5,1992.0,2.0,1.0,胜利西小区$,金州,光明$,板楼$,钢混,0.3333333333333333,1.0,3.0,70.0,平层,0,0,1,0,1,1,0,0,0,1,121.7153844452779,39.10417850214932
14,165.0,21097.0,精,78.21,2015.0,2.0,1.0,亿达云集$,中山,青云街$,板楼$,框架,0.5,2.0,4.0,70.0,平层,0,0,1,0,1,1,0,0,0,0,121.65287328811065,38.9021928345487
8,92.0,10109.9,精,91.0,2003.0,2.0,1.0,湾里南小区$,开发区,金湾新城$,板楼$,钢混,0.5,1.0,2.0,0.0,平层,0,0,1,1,1,1,0,0,0,0,121.85916984376554,39.06967041099975
88,109.0,12484.3,精,87.31,1997.0,3.0,1.0,教育二巷$,中山,武昌街$,板楼$,砖混,0.5,1.0,2.0,70.0,平层,0,0,0,0,0,0,0,0,0,0,0,0
101,138.0,13220.9,简,104.38,2015.0,2.0,1.0,华润海中国五期$,开发区,华润海中国$,板楼$,钢混,0.6666666666666666,2.0,3.0,50.0,平层,1,0,1,0,1,0,0,0,1,1,121.75727920982158,39.04282909035126
66,59.0,10729.2,精,54.99,1992.0,2.0,1.0,兰丰巷$,甘井子,马栏$,板楼$,砖混,0.5,1.0,2.0,70.0,平层,0,1,0,0,1,0,0,0,1,1,121.5584274077925,38.93036881523191
18,39.8,8375.4,简,47.52,2011.0,1.0,1.0,湾里南小区$,开发区,金湾新城$,板楼$,钢混,0.25,1.0,4.0,50.0,平层,0,0,1,0,1,1,0,0,0,0,121.85916984376554,39.06967041099975
10,44.0,10763.2,精,40.88,2012.0,1.0,1.0,星空公寓$,甘井子,机场$,塔楼$,钢混,0.14285714285714285,2.0,14.0,40.0,平层,0,1,1,0,1,0,0,0,0,1,121.55101512880915,38.96192815411024
29,146.0,23174.6,精,63.0,2003.0,2.0,1.0,青林美地$,甘井子,金三角$,板楼$,钢混,0.3333333333333333,1.0,3.0,70.0,平层,0,1,0,0,0,0,0,0,0,0,121.60669172074114,38.97810224721435
11,80.0,12984.9,简,61.61,2005.0,1.0,1.0,北欧假日$,开发区,松峪$,塔楼$,钢混,0.3333333333333333,2.0,6.0,50.0,平层,0,0,1,0,1,0,0,0,0,1,121.77932584674934,39.04444734216941
13,66.9,8733.7,精,76.6,2003.0,2.0,1.0,湾里南小区$,开发区,金湾新城$,板楼$,钢混,0.4,2.0,5.0,70.0,平层,0,0,0,0,0,0,0,0,0,0,121.85916984376554,39.06967041099975
19,89.0,12688.9,精,70.14,1997.0,2.0,1.0,铁路西站$,西岗,北京公园$,板楼$,砖混,0.5,1.0,2.0,70.0,平层,0,1,1,0,1,1,0,0,0,0,0,0
35,117.0,16012.0,精,73.07,2006.0,2.0,1.0,阳光月秀$,沙河口,阳光月秀$,板楼$,钢混,0.5,2.0,4.0,70.0,平层,0,0,1,0,1,1,0,0,0,1,121.5760348228053,38.934825492099485
9,61.0,9531.3,精,64.0,2003.0,2.0,1.0,湾里南小区$,开发区,金湾新城$,板楼$,钢混,0.25,1.0,4.0,70.0,平层,0,0,1,0,1,1,0,0,0,0,121.85916984376554,39.06967041099975
18,93.0,18368.6,精,50.63,2010.0,1.0,1.0,中海华庭$,高新园区,中海$,板塔结合$,钢混,0.2727272727272727,3.0,11.0,70.0,平层,0,0,0,0,0,0,0,0,0,0,121.52944170844438,38.87173022753774
58,160.8,20657.8,精,77.84,2009.0,2.0,2.0,恒德橄榄季$,甘井子,第五郡$,板楼$,钢混,0.25,1.0,4.0,70.0,平层,0,1,0,0,1,0,0,0,1,1,121.54151193775128,38.96015528467381
26,89.0,15023.6,精,59.24,2012.0,2.0,1.0,新星绿城六期$,甘井子,机场乐购$,板楼$,钢混,0.3333333333333333,1.0,3.0,70.0,平层,0,1,1,0,1,1,0,0,1,0,121.51698234397018,38.968292642721615
8,125.0,9380.9,精,133.25,2006.0,3.0,2.0,恒达花园$,金州,金华$,板楼$,钢混,0.5,1.0,2.0,70.0,跃层,0,0,0,0,0,0,0,0,0,0,121.71598901476749,39.11770952321311
9,54.0,13456.3,精,40.13,2007.0,1.0,1.0,锦泉源D3区$,甘井子,泉水锦泉源$,板楼$,钢混,0.3333333333333333,2.0,6.0,70.0,平层,0,1,1,1,0,0,0,0,0,0,121.61768702509855,39.01348308242818
44,115.0,10087.7,精,114.0,2017.0,3.0,2.0,鲁能优山美地$,金州,金石滩$,板楼$,钢混,0.3333333333333333,1.0,3.0,70.0,跃层,0,0,1,0,1,1,0,0,1,0,0,0
91,74.0,13099.7,简,56.49,1997.0,2.0,1.0,民权小区$,沙河口,西安路$,板楼$,钢混,0.5,1.0,2.0,70.0,平层,0,1,0,0,0,0,0,0,0,0,121.59971470940452,38.92137452081653
3,100.0,20136.9,精,49.66,2003.0,1.0,1.0,兰亭山水$,沙河口,星海人家商圈$,板楼$,钢混,0.1111111111111111,1.0,9.0,70.0,暂无数据,0,1,0,0,0,0,0,0,0,0,121.58364923130804,38.90318467673997
13,48.0,10282.8,精,46.68,1995.0,2.0,1.0,泡崖三区$,甘井子,泡崖市场$,板楼$,砖混,0.3333333333333333,1.0,3.0,70.0,平层,0,0,0,0,0,0,0,0,0,0,121.55563908725225,38.97687547607941
7,52.8,8025.5,精,65.79,1992.0,2.0,2.0,桃园小区$,金州,桃园$,板楼$,钢混,0.3333333333333333,1.0,3.0,0.0,平层,0,1,0,0,0,0,0,0,0,0,121.76407008327345,39.081313425289004
211,119.0,13632.7,精,87.29,2005.0,2.0,1.0,山海一家一期$,高新园区,华录$,塔楼$,钢混,0.25,2.0,8.0,70.0,平层,0,1,0,0,0,0,0,0,0,0,0,0
39,82.0,11761.3,简,69.72,2002.0,2.0,1.0,锦华南园$,沙河口,锦华$,板楼$,钢混,0.5,1.0,2.0,70.0,平层,0,0,0,0,1,0,0,0,1,1,121.55104786755346,38.94487492325151
15,78.8,9194.9,精,85.7,2009.0,2.0,1.0,盛滨花园C区$,金州,站前$,板楼$,钢混,0.16666666666666666,1.0,6.0,70.0,平层,0,1,1,0,1,1,0,0,0,0,121.73233712852317,39.09779431399705
67,72.0,13698.6,精,52.56,2012.0,1.0,1.0,翡翠春城$,甘井子,叠翠$,板楼$,钢混,0.25,1.0,4.0,70.0,平层,0,0,0,0,0,0,0,0,0,0,121.52920887304602,38.91464022213683
18,44.0,6162.5,简,71.4,1997.0,2.0,1.0,古城甲区$,金州,古城汇金$,板楼$,钢混,0.3333333333333333,1.0,3.0,70.0,平层,0,1,1,0,1,0,0,0,0,1,121.72508981975352,39.11499770792852
23,148.0,17857.1,精,82.88,2004.0,2.0,2.0,亲亲家园$,甘井子,西山水库$,板楼$,钢混,0.5,1.0,2.0,70.0,平层,0,1,1,0,1,1,1,0,0,0,121.54987077203016,38.92858041390463
7,194.0,14544.9,精,133.38,2014.0,3.0,1.0,华润海中国四期$,开发区,华润海中国$,板楼$,钢混,0.6666666666666666,2.0,3.0,50.0,平层,0,0,0,0,0,0,0,0,0,0,121.75727920982158,39.04282909035126
40,135.0,12359.2,精,109.23,2012.0,2.0,2.0,大连海湾城一期$,开发区,华润海中国$,板楼$,钢混,0.5,2.0,4.0,70.0,平层,0,0,1,0,1,1,0,0,0,1,121.75396598960911,39.04239207976784
20,60.0,12911.6,简,46.47,1990.0,2.0,1.0,星海公园$,沙河口,孙家沟$,板楼$,砖混,0.25,1.0,4.0,70.0,平层,0,1,0,0,0,0,0,0,0,0,121.5741110395726,38.88415578390394
30,73.0,8417.9,精,86.72,2009.0,3.0,1.0,悦泰山里$,金州,古城汇金$,板楼$,钢混,0.3333333333333333,1.0,3.0,70.0,平层,0,1,1,0,1,1,0,0,1,0,121.72524270775808,39.13082439730612
35,185.0,20661.2,精,89.54,2014.0,2.0,2.0,悦丽海湾$,高新园区,小平岛$,板楼$,钢混,0.25,2.0,8.0,70.0,平层,0,1,0,1,0,0,0,0,1,1,121.51677704343233,38.84536407362258
15,80.0,11129.7,精,71.88,2015.0,2.0,1.0,正源吉祥e家祥福园$,开发区,城润$,板楼$,钢混,0.4,2.0,5.0,50.0,平层,0,0,1,0,1,0,1,0,0,0,121.75891515979937,39.057970888242615
87,98.0,11933.8,简,82.12,1996.0,3.0,1.0,北甸街$,沙河口,辽师$,板楼$,钢混,0.3333333333333333,1.0,3.0,70.0,平层,0,1,1,0,1,1,0,0,0,1,121.57596520951812,38.92464508422796
85,210.0,23245.5,简,90.34,1995.0,2.0,2.0,湖畔小区$,中山,三八南$,板楼$,钢混,0.5,1.0,2.0,70.0,平层,0,0,0,0,0,0,0,0,0,0,121.66339778516044,38.92222100988539
127,84.0,16769.8,精,50.09,2012.0,1.0,1.0,美辰香醒$,甘井子,华东$,板楼$,钢混,0.3333333333333333,1.0,3.0,70.0,平层,0,1,1,1,1,1,0,0,0,0,121.60381564473562,38.99047397562602
10,88.8,12445.7,简,71.35,1996.0,2.0,1.0,河沿巷$,西岗,八一路$,板楼$,砖混,0.3333333333333333,1.0,3.0,70.0,平层,0,0,0,0,1,1,0,0,0,1,121.65035255481571,38.890964893649404
42,85.0,10775.9,简,78.88,2009.0,2.0,1.0,泉水N1区$,甘井子,泉水龙畔金泉$,塔楼$,钢混,0.3333333333333333,2.0,6.0,70.0,平层,0,0,0,0,0,0,0,0,0,0,121.64195088573689,39.02260164012546
30,58.0,9644.2,精,60.14,2007.0,2.0,1.0,生辉第一城$,金州,城润$,板楼$,钢混,0.5,2.0,4.0,70.0,平层,0,1,1,1,0,0,0,0,0,0,121.74764023359774,39.058098214323216
30,292.0,21171.7,精,137.92,2005.0,3.0,1.0,弘基三期$,高新园区,学府$,板楼$,钢混,0.5,1.0,2.0,70.0,平层,0,1,0,0,0,1,1,1,1,1,0,0
30,106.0,19568.0,简,54.17,1993.0,2.0,1.0,39中明阳街$,中山,三八南$,板楼$,钢混,0.25,1.0,4.0,70.0,平层,0,1,1,0,0,1,0,0,0,0,121.66832890030825,38.924859155065164
18,92.5,13641.1,精,67.81,1995.0,2.0,1.0,万达高层$,西岗,北京公园$,塔楼$,钢混,0.25,2.0,8.0,70.0,平层,0,1,1,0,1,1,0,0,0,0,121.62139603871869,38.92388410689923
21,135.0,29063.5,简,46.45,2008.0,1.0,1.0,颐和香榭$,西岗,北京公园$,板楼$,钢混,0.3333333333333333,2.0,6.0,70.0,平层,0,1,0,0,0,0,0,0,0,0,121.61143458159644,38.92490969251738
28,179.0,15174.6,精,117.96,2004.0,3.0,2.0,亲亲家园$,甘井子,西山水库$,板楼$,钢混,0.5,1.0,2.0,70.0,平层,0,1,1,0,0,0,0,0,1,0,121.54987077203016,38.92858041390463
13,86.8,10211.8,精,85.0,2006.0,2.0,1.0,永乐金庭$,金州,连大$,板楼$,钢混,0.3333333333333333,1.0,3.0,70.0,平层,0,0,0,0,0,0,0,0,0,0,121.71074943677876,39.10425938962146
108,266.0,18889.4,简,140.82,2005.0,3.0,2.0,弘基三期$,高新园区,学府$,板楼$,钢混,0.5,1.0,2.0,70.0,平层,0,1,0,0,0,1,1,1,0,1,0,0
36,118.0,18106.5,简,65.17,2014.0,2.0,1.0,亿合城$,甘井子,华南$,板楼$,钢混,0.6,3.0,5.0,70.0,平层,0,1,1,0,1,0,0,0,1,1,121.59392190367932,38.99833825455056
11,66.0,12000.0,精,55.0,2015.0,2.0,1.0,泽林苑$,开发区,安盛$,塔楼$,钢混,0.25,1.0,4.0,50.0,平层,0,0,0,0,0,0,0,0,0,0,121.7727047656151,39.06156960274094
5,160.0,19079.4,精,83.86,2015.0,2.0,2.0,御园$,沙河口,阳光月秀$,板楼$,钢混,0.375,3.0,8.0,70.0,平层,0,0,0,0,0,0,0,0,0,0,121.56753473357821,38.93351373893399
63,113.0,13552.4,简,83.38,2011.0,2.0,2.0,大连天地悦翠台$,高新园区,黄泥川$,板楼$,钢混,0.2857142857142857,2.0,7.0,70.0,平层,0,0,0,0,0,0,0,0,0,0,121.4500946576295,38.86526709874685
60,48.5,9238.1,简,52.5,2007.0,1.0,1.0,绿洲半岛北岸$,开发区,海富$,板楼$,钢混,0.25,1.0,4.0,50.0,平层,0,0,1,0,1,1,0,0,0,0,121.80916704285836,39.027172071236684
123,153.0,18985.0,精,80.59,2006.0,2.0,1.0,鼎新鼎润府$,甘井子,锦绣$,板楼$,钢混,0.5,1.0,2.0,70.0,平层,0,0,1,0,1,1,0,0,0,1,121.56573489853979,38.95403197987777
9,61.0,9531.3,精,64.0,2003.0,2.0,1.0,湾里南小区$,开发区,金湾新城$,板楼$,钢混,0.25,1.0,4.0,70.0,平层,0,0,1,0,1,1,0,0,0,0,121.85916984376554,39.06967041099975
18,93.0,18368.6,精,50.63,2010.0,1.0,1.0,中海华庭$,高新园区,中海$,板塔结合$,钢混,0.2727272727272727,3.0,11.0,70.0,平层,0,0,0,0,0,0,0,0,0,0,121.52944170844438,38.87173022753774
58,160.8,20657.8,精,77.84,2009.0,2.0,2.0,恒德橄榄季$,甘井子,第五郡$,板楼$,钢混,0.25,1.0,4.0,70.0,平层,0,1,0,0,1,0,0,0,1,1,121.54151193775128,38.96015528467381
26,89.0,15023.6,精,59.24,2012.0,2.0,1.0,新星绿城六期$,甘井子,机场乐购$,板楼$,钢混,0.3333333333333333,1.0,3.0,70.0,平层,0,1,1,0,1,1,0,0,1,0,121.51698234397018,38.968292642721615
8,125.0,9380.9,精,133.25,2006.0,3.0,2.0,恒达花园$,金州,金华$,板楼$,钢混,0.5,1.0,2.0,70.0,跃层,0,0,0,0,0,0,0,0,0,0,121.71598901476749,39.11770952321311
9,54.0,13456.3,精,40.13,2007.0,1.0,1.0,锦泉源D3区$,甘井子,泉水锦泉源$,板楼$,钢混,0.3333333333333333,2.0,6.0,70.0,平层,0,1,1,1,0,0,0,0,0,0,121.61768702509855,39.01348308242818
44,115.0,10087.7,精,114.0,2017.0,3.0,2.0,鲁能优山美地$,金州,金石滩$,板楼$,钢混,0.3333333333333333,1.0,3.0,70.0,跃层,0,0,1,0,1,1,0,0,1,0,0,0
91,74.0,13099.7,简,56.49,1997.0,2.0,1.0,民权小区$,沙河口,西安路$,板楼$,钢混,0.5,1.0,2.0,70.0,平层,0,1,0,0,0,0,0,0,0,0,121.59971470940452,38.92137452081653
3,100.0,20136.9,精,49.66,2003.0,1.0,1.0,兰亭山水$,沙河口,星海人家商圈$,板楼$,钢混,0.1111111111111111,1.0,9.0,70.0,暂无数据,0,1,0,0,0,0,0,0,0,0,121.58364923130804,38.90318467673997
13,48.0,10282.8,精,46.68,1995.0,2.0,1.0,泡崖三区$,甘井子,泡崖市场$,板楼$,砖混,0.3333333333333333,1.0,3.0,70.0,平层,0,0,0,0,0,0,0,0,0,0,121.55563908725225,38.97687547607941
7,52.8,8025.5,精,65.79,1992.0,2.0,2.0,桃园小区$,金州,桃园$,板楼$,钢混,0.3333333333333333,1.0,3.0,0.0,平层,0,1,0,0,0,0,0,0,0,0,121.76407008327345,39.081313425289004
211,119.0,13632.7,精,87.29,2005.0,2.0,1.0,山海一家一期$,高新园区,华录$,塔楼$,钢混,0.25,2.0,8.0,70.0,平层,0,1,0,0,0,0,0,0,0,0,0,0
39,82.0,11761.3,简,69.72,2002.0,2.0,1.0,锦华南园$,沙河口,锦华$,板楼$,钢混,0.5,1.0,2.0,70.0,平层,0,0,0,0,1,0,0,0,1,1,121.55104786755346,38.94487492325151
15,78.8,9194.9,精,85.7,2009.0,2.0,1.0,盛滨花园C区$,金州,站前$,板楼$,钢混,0.16666666666666666,1.0,6.0,70.0,平层,0,1,1,0,1,1,0,0,0,0,121.73233712852317,39.09779431399705
67,72.0,13698.6,精,52.56,2012.0,1.0,1.0,翡翠春城$,甘井子,叠翠$,板楼$,钢混,0.25,1.0,4.0,70.0,平层,0,0,0,0,0,0,0,0,0,0,121.52920887304602,38.91464022213683
18,44.0,6162.5,简,71.4,1997.0,2.0,1.0,古城甲区$,金州,古城汇金$,板楼$,钢混,0.3333333333333333,1.0,3.0,70.0,平层,0,1,1,0,1,0,0,0,0,1,121.72508981975352,39.11499770792852
23,148.0,17857.1,精,82.88,2004.0,2.0,2.0,亲亲家园$,甘井子,西山水库$,板楼$,钢混,0.5,1.0,2.0,70.0,平层,0,1,1,0,1,1,1,0,0,0,121.54987077203016,38.92858041390463
7,194.0,14544.9,精,133.38,2014.0,3.0,1.0,华润海中国四期$,开发区,华润海中国$,板楼$,钢混,0.6666666666666666,2.0,3.0,50.0,平层,0,0,0,0,0,0,0,0,0,0,121.75727920982158,39.04282909035126
40,135.0,12359.2,精,109.23,2012.0,2.0,2.0,大连海湾城一期$,开发区,华润海中国$,板楼$,钢混,0.5,2.0,4.0,70.0,平层,0,0,1,0,1,1,0,0,0,1,121.75396598960911,39.04239207976784
20,60.0,12911.6,简,46.47,1990.0,2.0,1.0,星海公园$,沙河口,孙家沟$,板楼$,砖混,0.25,1.0,4.0,70.0,平层,0,1,0,0,0,0,0,0,0,0,121.5741110395726,38.88415578390394
30,73.0,8417.9,精,86.72,2009.0,3.0,1.0,悦泰山里$,金州,古城汇金$,板楼$,钢混,0.3333333333333333,1.0,3.0,70.0,平层,0,1,1,0,1,1,0,0,1,0,121.72524270775808,39.13082439730612
35,185.0,20661.2,精,89.54,2014.0,2.0,2.0,悦丽海湾$,高新园区,小平岛$,板楼$,钢混,0.25,2.0,8.0,70.0,平层,0,1,0,1,0,0,0,0,1,1,121.51677704343233,38.84536407362258
15,80.0,11129.7,精,71.88,2015.0,2.0,1.0,正源吉祥e家祥福园$,开发区,城润$,板楼$,钢混,0.4,2.0,5.0,50.0,平层,0,0,1,0,1,0,1,0,0,0,121.75617788726632,39.06242472088005
87,98.0,11933.8,简,82.12,1996.0,3.0,1.0,北甸街$,沙河口,辽师$,板楼$,钢混,0.3333333333333333,1.0,3.0,70.0,平层,0,1,1,0,1,1,0,0,0,1,121.57596520951812,38.92464508422796
85,210.0,23245.5,简,90.34,1995.0,2.0,2.0,湖畔小区$,中山,三八南$,板楼$,钢混,0.5,1.0,2.0,70.0,平层,0,0,0,0,0,0,0,0,0,0,121.66339778516044,38.92222100988539
127,84.0,16769.8,精,50.09,2012.0,1.0,1.0,美辰香醒$,甘井子,华东$,板楼$,钢混,0.3333333333333333,1.0,3.0,70.0,平层,0,1,1,1,1,1,0,0,0,0,121.60381564473562,38.99047397562602
10,88.8,12445.7,简,71.35,1996.0,2.0,1.0,河沿巷$,西岗,八一路$,板楼$,砖混,0.3333333333333333,1.0,3.0,70.0,平层,0,0,0,0,1,1,0,0,0,1,121.65035255481571,38.890964893649404
42,85.0,10775.9,简,78.88,2009.0,2.0,1.0,泉水N1区$,甘井子,泉水龙畔金泉$,塔楼$,钢混,0.3333333333333333,2.0,6.0,70.0,平层,0,0,0,0,0,0,0,0,0,0,121.64195088573689,39.02260164012546
30,58.0,9644.2,精,60.14,2007.0,2.0,1.0,生辉第一城$,金州,城润$,板楼$,钢混,0.5,2.0,4.0,70.0,平层,0,1,1,1,0,0,0,0,0,0,121.74764023359774,39.058098214323216
30,292.0,21171.7,精,137.92,2005.0,3.0,1.0,弘基三期$,高新园区,学府$,板楼$,钢混,0.5,1.0,2.0,70.0,平层,0,1,0,0,0,1,1,1,1,1,0,0
30,106.0,19568.0,简,54.17,1993.0,2.0,1.0,39中明阳街$,中山,三八南$,板楼$,钢混,0.25,1.0,4.0,70.0,平层,0,1,1,0,0,1,0,0,0,0,121.66476937640293,38.920629698466094
18,92.5,13641.1,精,67.81,1995.0,2.0,1.0,万达高层$,西岗,北京公园$,塔楼$,钢混,0.25,2.0,8.0,70.0,平层,0,1,1,0,1,1,0,0,0,0,121.62139603871869,38.92388410689923
21,135.0,29063.5,简,46.45,2008.0,1.0,1.0,颐和香榭$,西岗,北京公园$,板楼$,钢混,0.3333333333333333,2.0,6.0,70.0,平层,0,1,0,0,0,0,0,0,0,0,121.61143458159644,38.92490969251738
28,179.0,15174.6,精,117.96,2004.0,3.0,2.0,亲亲家园$,甘井子,西山水库$,板楼$,钢混,0.5,1.0,2.0,70.0,平层,0,1,1,0,0,0,0,0,1,0,121.54987077203016,38.92858041390463
13,86.8,10211.8,精,85.0,2006.0,2.0,1.0,永乐金庭$,金州,连大$,板楼$,钢混,0.3333333333333333,1.0,3.0,70.0,平层,0,0,0,0,0,0,0,0,0,0,121.71074943677876,39.10425938962146
108,266.0,18889.4,简,140.82,2005.0,3.0,2.0,弘基三期$,高新园区,学府$,板楼$,钢混,0.5,1.0,2.0,70.0,平层,0,1,0,0,0,1,1,1,0,1,0,0
36,118.0,18106.5,简,65.17,2014.0,2.0,1.0,亿合城$,甘井子,华南$,板楼$,钢混,0.6,3.0,5.0,70.0,平层,0,1,1,0,1,0,0,0,1,1,121.5939090201817,38.998306654525926
11,66.0,12000.0,精,55.0,2015.0,2.0,1.0,泽林苑$,开发区,安盛$,塔楼$,钢混,0.25,1.0,4.0,50.0,平层,0,0,0,0,0,0,0,0,0,0,121.7727047656151,39.06156960274094
5,160.0,19079.4,精,83.86,2015.0,2.0,2.0,御园$,沙河口,阳光月秀$,板楼$,钢混,0.375,3.0,8.0,70.0,平层,0,0,0,0,0,0,0,0,0,0,121.56753473357821,38.93351373893399
63,113.0,13552.4,简,83.38,2011.0,2.0,2.0,大连天地悦翠台$,高新园区,黄泥川$,板楼$,钢混,0.2857142857142857,2.0,7.0,70.0,平层,0,0,0,0,0,0,0,0,0,0,121.4500946576295,38.86526709874685
60,48.5,9238.1,简,52.5,2007.0,1.0,1.0,绿洲半岛北岸$,开发区,海富$,板楼$,钢混,0.25,1.0,4.0,50.0,平层,0,0,1,0,1,1,0,0,0,0,121.80916704285836,39.027172071236684
123,153.0,18985.0,精,80.59,2006.0,2.0,1.0,鼎新鼎润府$,甘井子,锦绣$,板楼$,钢混,0.5,1.0,2.0,70.0,平层,0,0,1,0,1,1,0,0,0,1,121.56573489853979,38.95403197987777
24,198.0,21253.8,精,93.16,2013.0,2.0,2.0,中海紫御观邸二期$,高新园区,中海$,板楼$,钢混,0.5,2.0,4.0,70.0,平层,0,1,1,1,1,1,0,0,1,1,121.52783500459905,38.87082611585169
36,72.73,14353.7,精,50.67,1992.0,2.0,1.0,马栏南街$,沙河口,马栏$,板楼$,砖混,0.16666666666666666,1.0,6.0,70.0,平层,0,1,1,0,1,1,0,0,1,1,121.55886944776447,38.92477222450784
184,158.0,18505.5,精,85.38,2011.0,2.0,1.0,海创半山壹号$,高新园区,七贤岭$,板楼$,钢混,0.6666666666666666,2.0,3.0,70.0,平层,1,1,1,0,0,0,0,0,1,1,122.40204684869718,39.220922012246454
49,52.0,11555.6,毛,45.0,1992.0,2.0,1.0,侯二小区$,沙河口,侯家沟$,板楼$,砖混,0.125,1.0,8.0,70.0,平层,0,1,1,0,1,1,0,0,0,0,121.59007102695813,38.933812737033655
46,43.5,11865.8,精,36.66,1993.0,1.0,1.0,天水街$,甘井子,山东路$,板楼$,砖混,0.25,1.0,4.0,70.0,平层,0,1,1,0,1,0,0,0,1,1,121.59480587492828,38.99023706576139
12,73.0,6357.2,毛,114.83,2003.0,2.0,2.0,青松南里$,开发区,红梅翠竹$,板楼$,钢混,0.25,2.0,8.0,50.0,跃层,0,0,0,0,1,1,0,0,0,1,121.76474208855765,39.04758773975601
